[
  {
    "ID": "0",
    "LABEL": "Art Missoula- Gloabal and Cultural Affairs",
    "LATITUDE": "46.9335464",
    "LONGITUDE": "-114.0350784",
    "GROUP": "Service Site",
    "TOTAL ORGS IMPACTED": "5",
    "Source": null,
    "Target": null,
    "Service Type": "State"
  },
  {
    "ID": "1",
    "LABEL": "Blackfeet Community College",
    "LATITUDE": "48.55195069",
    "LONGITUDE": "-113.0093085",
    "GROUP": "Service Site",
    "TOTAL ORGS IMPACTED": "2",
    "Source": null,
    "Target": null,
    "Service Type": "State"
  },
  {
    "ID": "2",
    "LABEL": "Butte High School (MT Tech)",
    "LATITUDE": "46.00865483",
    "LONGITUDE": "-112.5334549",
    "GROUP": "Service Site",
    "TOTAL ORGS IMPACTED": "2",
    "Source": null,
    "Target": null,
    "Service Type": "State"
  },
  {
    "ID": "3",
    "LABEL": "Capital High School (MT Tech)",
    "LATITUDE": "46.61436335",
    "LONGITUDE": "-112.0484467",
    "GROUP": "Service Site",
    "TOTAL ORGS IMPACTED": "26",
    "Source": null,
    "Target": null,
    "Service Type": "State"
  },
  {
    "ID": "4",
    "LABEL": "Cultivating Connections Montana",
    "LATITUDE": "46.20292596",
    "LONGITUDE": "-114.156604",
    "GROUP": "Service Site",
    "TOTAL ORGS IMPACTED": "7",
    "Source": null,
    "Target": null,
    "Service Type": "State"
  },
  {
    "ID": "5",
    "LABEL": "Dawson Community College",
    "LATITUDE": "47.0854599",
    "LONGITUDE": "-104.7250156",
    "GROUP": "Service Site",
    "TOTAL ORGS IMPACTED": "5",
    "Source": null,
    "Target": null,
    "Service Type": "State"
  },
  {
    "ID": "6",
    "LABEL": "EmPower Place (Missoula Food Bank & Community Center)",
    "LATITUDE": "46.87213334",
    "LONGITUDE": "-114.0228862",
    "GROUP": "Service Site",
    "TOTAL ORGS IMPACTED": "3",
    "Source": null,
    "Target": null,
    "Service Type": "State"
  },
  {
    "ID": "7",
    "LABEL": "Fort Peck Tribal Museum & Archives",
    "LATITUDE": "48.12400764",
    "LONGITUDE": "-105.1844756",
    "GROUP": "Service Site",
    "TOTAL ORGS IMPACTED": "2",
    "Source": null,
    "Target": null,
    "Service Type": "State"
  },
  {
    "ID": "8",
    "LABEL": "Frenchtown High School",
    "LATITUDE": "47.02192179",
    "LONGITUDE": "-114.2421868",
    "GROUP": "Service Site",
    "TOTAL ORGS IMPACTED": "0",
    "Source": null,
    "Target": null,
    "Service Type": "State"
  },
  {
    "ID": "9",
    "LABEL": "Garden City Harvest",
    "LATITUDE": "46.87528482",
    "LONGITUDE": "-114.0224281",
    "GROUP": "Service Site",
    "TOTAL ORGS IMPACTED": "1",
    "Source": null,
    "Target": null,
    "Service Type": "State"
  },
  {
    "ID": "10",
    "LABEL": "Girl Scouts of Billings",
    "LATITUDE": "45.78448786",
    "LONGITUDE": "-108.574041",
    "GROUP": "Service Site",
    "TOTAL ORGS IMPACTED": "6",
    "Source": null,
    "Target": null,
    "Service Type": "State"
  },
  {
    "ID": "11",
    "LABEL": "Great Falls College MSU",
    "LATITUDE": "47.48604853",
    "LONGITUDE": "-111.2698073",
    "GROUP": "Service Site",
    "TOTAL ORGS IMPACTED": "10",
    "Source": null,
    "Target": null,
    "Service Type": "State"
  },
  {
    "ID": "12",
    "LABEL": "Heartism",
    "LATITUDE": "46.31565885",
    "LONGITUDE": "-114.1152115",
    "GROUP": "Service Site",
    "TOTAL ORGS IMPACTED": "3",
    "Source": null,
    "Target": null,
    "Service Type": "State"
  },
  {
    "ID": "13",
    "LABEL": "Historical Museum at Fort Missoula",
    "LATITUDE": "46.84369232",
    "LONGITUDE": "-114.0629096",
    "GROUP": "Service Site",
    "TOTAL ORGS IMPACTED": "12",
    "Source": null,
    "Target": null,
    "Service Type": "State"
  },
  {
    "ID": "14",
    "LABEL": "International Rescue Committee",
    "LATITUDE": "46.84116721",
    "LONGITUDE": "-114.0184922",
    "GROUP": "Service Site",
    "TOTAL ORGS IMPACTED": "25",
    "Source": null,
    "Target": null,
    "Service Type": "State"
  },
  {
    "ID": "15",
    "LABEL": "MAPS",
    "LATITUDE": "46.24453945",
    "LONGITUDE": "-114.1620171",
    "GROUP": "Service Site",
    "TOTAL ORGS IMPACTED": "22",
    "Source": null,
    "Target": null,
    "Service Type": "State"
  },
  {
    "ID": "16",
    "LABEL": "Missoula Art Museum",
    "LATITUDE": "46.87247687",
    "LONGITUDE": "-113.992366",
    "GROUP": "Service Site",
    "TOTAL ORGS IMPACTED": "0",
    "Source": null,
    "Target": null,
    "Service Type": "State"
  },
  {
    "ID": "17",
    "LABEL": "Montana State University Billings Upward Bound",
    "LATITUDE": "45.79657582",
    "LONGITUDE": "-108.5201921",
    "GROUP": "Service Site",
    "TOTAL ORGS IMPACTED": "13",
    "Source": null,
    "Target": null,
    "Service Type": "State"
  },
  {
    "ID": "18",
    "LABEL": "Poplar High School",
    "LATITUDE": "48.11133934",
    "LONGITUDE": "-105.2038853",
    "GROUP": "Service Site",
    "TOTAL ORGS IMPACTED": "7",
    "Source": null,
    "Target": null,
    "Service Type": "State"
  },
  {
    "ID": "19",
    "LABEL": "Salish Kootenai College Upward Bound",
    "LATITUDE": "47.59752839",
    "LONGITUDE": "-114.1117745",
    "GROUP": "Service Site",
    "TOTAL ORGS IMPACTED": "10",
    "Source": null,
    "Target": null,
    "Service Type": "State"
  },
  {
    "ID": "20",
    "LABEL": "Soft Landing Missoula",
    "LATITUDE": "46.85768751",
    "LONGITUDE": "-114.0118457",
    "GROUP": "Service Site",
    "TOTAL ORGS IMPACTED": "1",
    "Source": null,
    "Target": null,
    "Service Type": "State"
  },
  {
    "ID": "21",
    "LABEL": "SpectrUM Discovery Area",
    "LATITUDE": "46.86996974",
    "LONGITUDE": "-113.9898082",
    "GROUP": "Service Site",
    "TOTAL ORGS IMPACTED": "26",
    "Source": null,
    "Target": null,
    "Service Type": "State"
  },
  {
    "ID": "22",
    "LABEL": "University of Montana Upward Bound",
    "LATITUDE": "46.86545093",
    "LONGITUDE": "-113.9757535",
    "GROUP": "Service Site",
    "TOTAL ORGS IMPACTED": "0",
    "Source": null,
    "Target": null,
    "Service Type": "State"
  },
  {
    "ID": "23",
    "LABEL": "YWCA Missoula ",
    "LATITUDE": "46.8674307",
    "LONGITUDE": "-114.0240605",
    "GROUP": "Service Site",
    "TOTAL ORGS IMPACTED": "2",
    "Source": null,
    "Target": null,
    "Service Type": "State"
  },
  {
    "ID": "24",
    "LABEL": "Target Range Middle School",
    "LATITUDE": "46.8485325",
    "LONGITUDE": "-114.0803441",
    "GROUP": "Impacted Organization",
    "TOTAL ORGS IMPACTED": null,
    "Source": "0",
    "Target": "24",
    "Service Type": "State"
  },
  {
    "ID": "25",
    "LABEL": "Lowell Elementary",
    "LATITUDE": "46.88094965",
    "LONGITUDE": "-114.008521",
    "GROUP": "Impacted Organization",
    "TOTAL ORGS IMPACTED": null,
    "Source": "0",
    "Target": "25",
    "Service Type": "State"
  },
  {
    "ID": "26",
    "LABEL": "Rattle Snake Elementary",
    "LATITUDE": "46.89165347",
    "LONGITUDE": "-113.9667435",
    "GROUP": "Impacted Organization",
    "TOTAL ORGS IMPACTED": null,
    "Source": "0",
    "Target": "26",
    "Service Type": "State"
  },
  {
    "ID": "27",
    "LABEL": "Jeanette Rankin Elementary",
    "LATITUDE": "46.81680354",
    "LONGITUDE": "-114.0704116",
    "GROUP": "Impacted Organization",
    "TOTAL ORGS IMPACTED": null,
    "Source": "0",
    "Target": "27",
    "Service Type": "State"
  },
  {
    "ID": "28",
    "LABEL": "Arts Missoula ",
    "LATITUDE": "46.87343413",
    "LONGITUDE": "-114.0433656",
    "GROUP": "Impacted Organization",
    "TOTAL ORGS IMPACTED": null,
    "Source": "0",
    "Target": "28",
    "Service Type": "State"
  },
  {
    "ID": "29",
    "LABEL": "FAST Blackfeet Food Pantry",
    "LATITUDE": "48.55676139",
    "LONGITUDE": "-113.0180143",
    "GROUP": "Impacted Organization",
    "TOTAL ORGS IMPACTED": null,
    "Source": "1",
    "Target": "29",
    "Service Type": "State"
  },
  {
    "ID": "30",
    "LABEL": "Blackfeet Community College",
    "LATITUDE": "48.55195069",
    "LONGITUDE": "-113.0093085",
    "GROUP": "Impacted Organization",
    "TOTAL ORGS IMPACTED": null,
    "Source": "1",
    "Target": "30",
    "Service Type": "State"
  },
  {
    "ID": "31",
    "LABEL": "University of Montana ",
    "LATITUDE": "46.86201891",
    "LONGITUDE": "-113.9846291",
    "GROUP": "Impacted Organization",
    "TOTAL ORGS IMPACTED": null,
    "Source": "2",
    "Target": "31",
    "Service Type": "State"
  },
  {
    "ID": "32",
    "LABEL": "Butte Food Bank (Thompson Bank Food Drive)",
    "LATITUDE": "46.00566109",
    "LONGITUDE": "-112.5248619",
    "GROUP": "Impacted Organization",
    "TOTAL ORGS IMPACTED": null,
    "Source": "2",
    "Target": "32",
    "Service Type": "State"
  },
  {
    "ID": "33",
    "LABEL": "Montana Tech University",
    "LATITUDE": "46.01175841",
    "LONGITUDE": "-112.5574969",
    "GROUP": "Impacted Organization",
    "TOTAL ORGS IMPACTED": null,
    "Source": "3",
    "Target": "33",
    "Service Type": "State"
  },
  {
    "ID": "34",
    "LABEL": "Helena High School",
    "LATITUDE": "46.59529391",
    "LONGITUDE": "-112.0186936",
    "GROUP": "Impacted Organization",
    "TOTAL ORGS IMPACTED": null,
    "Source": "3",
    "Target": "34",
    "Service Type": "State"
  },
  {
    "ID": "35",
    "LABEL": "Capital High School",
    "LATITUDE": "46.61436335",
    "LONGITUDE": "-112.0484467",
    "GROUP": "Impacted Organization",
    "TOTAL ORGS IMPACTED": null,
    "Source": "3",
    "Target": "35",
    "Service Type": "State"
  },
  {
    "ID": "36",
    "LABEL": "Butte High School",
    "LATITUDE": "46.00865483",
    "LONGITUDE": "-112.5334549",
    "GROUP": "Impacted Organization",
    "TOTAL ORGS IMPACTED": null,
    "Source": "3",
    "Target": "36",
    "Service Type": "State"
  },
  {
    "ID": "37",
    "LABEL": "Montana State University",
    "LATITUDE": "45.66747234",
    "LONGITUDE": "-111.0545782",
    "GROUP": "Impacted Organization",
    "TOTAL ORGS IMPACTED": null,
    "Source": "3",
    "Target": "37",
    "Service Type": "State"
  },
  {
    "ID": "38",
    "LABEL": "Missoula College ",
    "LATITUDE": "46.86487911",
    "LONGITUDE": "-113.9758648",
    "GROUP": "Impacted Organization",
    "TOTAL ORGS IMPACTED": null,
    "Source": "3",
    "Target": "38",
    "Service Type": "State"
  },
  {
    "ID": "39",
    "LABEL": "C.R. Anderson Middle School",
    "LATITUDE": "46.59953674",
    "LONGITUDE": "-112.0540079",
    "GROUP": "Impacted Organization",
    "TOTAL ORGS IMPACTED": null,
    "Source": "3",
    "Target": "39",
    "Service Type": "State"
  },
  {
    "ID": "40",
    "LABEL": "Helena Middle School",
    "LATITUDE": "46.59568343",
    "LONGITUDE": "-112.025838",
    "GROUP": "Impacted Organization",
    "TOTAL ORGS IMPACTED": null,
    "Source": "3",
    "Target": "40",
    "Service Type": "State"
  },
  {
    "ID": "41",
    "LABEL": "East Helena High School",
    "LATITUDE": "46.60364559",
    "LONGITUDE": "-111.9151143",
    "GROUP": "Impacted Organization",
    "TOTAL ORGS IMPACTED": null,
    "Source": "3",
    "Target": "41",
    "Service Type": "State"
  },
  {
    "ID": "42",
    "LABEL": "East Valley Middle School",
    "LATITUDE": "46.59356254",
    "LONGITUDE": "-111.9069583",
    "GROUP": "Impacted Organization",
    "TOTAL ORGS IMPACTED": null,
    "Source": "3",
    "Target": "42",
    "Service Type": "State"
  },
  {
    "ID": "43",
    "LABEL": "Anaconda Junior/Senior High School",
    "LATITUDE": "46.12549805",
    "LONGITUDE": "-112.9539491",
    "GROUP": "Impacted Organization",
    "TOTAL ORGS IMPACTED": null,
    "Source": "3",
    "Target": "43",
    "Service Type": "State"
  },
  {
    "ID": "44",
    "LABEL": "North Idaho College ",
    "LATITUDE": null,
    "LONGITUDE": null,
    "GROUP": "Impacted Organization",
    "TOTAL ORGS IMPACTED": null,
    "Source": "3",
    "Target": "44",
    "Service Type": "State"
  },
  {
    "ID": "45",
    "LABEL": "Gonzaga University ",
    "LATITUDE": null,
    "LONGITUDE": null,
    "GROUP": "Impacted Organization",
    "TOTAL ORGS IMPACTED": null,
    "Source": "3",
    "Target": "45",
    "Service Type": "State"
  },
  {
    "ID": "46",
    "LABEL": "University of Montana ",
    "LATITUDE": "46.86201891",
    "LONGITUDE": "-113.9846291",
    "GROUP": "Impacted Organization",
    "TOTAL ORGS IMPACTED": null,
    "Source": "3",
    "Target": "46",
    "Service Type": "State"
  },
  {
    "ID": "47",
    "LABEL": "E. F. Duvall Middle School",
    "LATITUDE": "46.39460678",
    "LONGITUDE": "-112.7294658",
    "GROUP": "Impacted Organization",
    "TOTAL ORGS IMPACTED": null,
    "Source": "3",
    "Target": "47",
    "Service Type": "State"
  },
  {
    "ID": "48",
    "LABEL": "Helena College ",
    "LATITUDE": "46.59586503",
    "LONGITUDE": "-112.0163301",
    "GROUP": "Impacted Organization",
    "TOTAL ORGS IMPACTED": null,
    "Source": "3",
    "Target": "48",
    "Service Type": "State"
  },
  {
    "ID": "49",
    "LABEL": "Emerson Elementary",
    "LATITUDE": "45.99457938",
    "LONGITUDE": "-112.5158111",
    "GROUP": "Impacted Organization",
    "TOTAL ORGS IMPACTED": null,
    "Source": "3",
    "Target": "49",
    "Service Type": "State"
  },
  {
    "ID": "50",
    "LABEL": "Whittier Elementary ",
    "LATITUDE": "45.98882468",
    "LONGITUDE": "-112.4957668",
    "GROUP": "Impacted Organization",
    "TOTAL ORGS IMPACTED": null,
    "Source": "3",
    "Target": "50",
    "Service Type": "State"
  },
  {
    "ID": "51",
    "LABEL": "West Elementary",
    "LATITUDE": "46.02281228",
    "LONGITUDE": "-112.548089",
    "GROUP": "Impacted Organization",
    "TOTAL ORGS IMPACTED": null,
    "Source": "3",
    "Target": "51",
    "Service Type": "State"
  },
  {
    "ID": "52",
    "LABEL": "Margaret Leary Elemetary",
    "LATITUDE": "45.96106318",
    "LONGITUDE": "-112.5214347",
    "GROUP": "Impacted Organization",
    "TOTAL ORGS IMPACTED": null,
    "Source": "3",
    "Target": "52",
    "Service Type": "State"
  },
  {
    "ID": "53",
    "LABEL": "Kennedy Elementary",
    "LATITUDE": "46.02068753",
    "LONGITUDE": "-112.5531711",
    "GROUP": "Impacted Organization",
    "TOTAL ORGS IMPACTED": null,
    "Source": "3",
    "Target": "53",
    "Service Type": "State"
  },
  {
    "ID": "54",
    "LABEL": "Lincoln Elementary ",
    "LATITUDE": null,
    "LONGITUDE": null,
    "GROUP": "Impacted Organization",
    "TOTAL ORGS IMPACTED": null,
    "Source": "3",
    "Target": "54",
    "Service Type": "State"
  },
  {
    "ID": "55",
    "LABEL": "Highlands College",
    "LATITUDE": "45.9465431",
    "LONGITUDE": "-112.5083223",
    "GROUP": "Impacted Organization",
    "TOTAL ORGS IMPACTED": null,
    "Source": "3",
    "Target": "55",
    "Service Type": "State"
  },
  {
    "ID": "56",
    "LABEL": "East Middle School",
    "LATITUDE": "46.00000156",
    "LONGITUDE": "-112.4962797",
    "GROUP": "Impacted Organization",
    "TOTAL ORGS IMPACTED": null,
    "Source": "3",
    "Target": "56",
    "Service Type": "State"
  },
  {
    "ID": "57",
    "LABEL": "Beaverhead County Animal Shelter",
    "LATITUDE": "45.23331129",
    "LONGITUDE": "-112.6193603",
    "GROUP": "Impacted Organization",
    "TOTAL ORGS IMPACTED": null,
    "Source": "3",
    "Target": "57",
    "Service Type": "State"
  },
  {
    "ID": "58",
    "LABEL": "Dillon Public Library",
    "LATITUDE": "45.21633936",
    "LONGITUDE": "-112.6375645",
    "GROUP": "Impacted Organization",
    "TOTAL ORGS IMPACTED": null,
    "Source": "3",
    "Target": "58",
    "Service Type": "State"
  },
  {
    "ID": "59",
    "LABEL": "Hamilton Elementary ",
    "LATITUDE": "46.24714447",
    "LONGITUDE": "-114.167206",
    "GROUP": "Impacted Organization",
    "TOTAL ORGS IMPACTED": null,
    "Source": "4",
    "Target": "59",
    "Service Type": "State"
  },
  {
    "ID": "60",
    "LABEL": "Heartism",
    "LATITUDE": "46.31565885",
    "LONGITUDE": "-114.1152115",
    "GROUP": "Impacted Organization",
    "TOTAL ORGS IMPACTED": null,
    "Source": "4",
    "Target": "60",
    "Service Type": "State"
  },
  {
    "ID": "61",
    "LABEL": "Darby Public Library ",
    "LATITUDE": "46.02060153",
    "LONGITUDE": "-114.1769983",
    "GROUP": "Impacted Organization",
    "TOTAL ORGS IMPACTED": null,
    "Source": "4",
    "Target": "61",
    "Service Type": "State"
  },
  {
    "ID": "62",
    "LABEL": "BEAR",
    "LATITUDE": "46.24956583",
    "LONGITUDE": "-114.1712396",
    "GROUP": "Impacted Organization",
    "TOTAL ORGS IMPACTED": null,
    "Source": "4",
    "Target": "62",
    "Service Type": "State"
  },
  {
    "ID": "63",
    "LABEL": "MAPS",
    "LATITUDE": "46.24453945",
    "LONGITUDE": "-114.1620171",
    "GROUP": "Impacted Organization",
    "TOTAL ORGS IMPACTED": null,
    "Source": "4",
    "Target": "63",
    "Service Type": "State"
  },
  {
    "ID": "64",
    "LABEL": "Bitterroot Land Trust",
    "LATITUDE": "46.24641878",
    "LONGITUDE": "-114.1569289",
    "GROUP": "Impacted Organization",
    "TOTAL ORGS IMPACTED": null,
    "Source": "4",
    "Target": "64",
    "Service Type": "State"
  },
  {
    "ID": "65",
    "LABEL": "The Farm School Preschool",
    "LATITUDE": "46.20297004",
    "LONGITUDE": "-114.156639",
    "GROUP": "Impacted Organization",
    "TOTAL ORGS IMPACTED": null,
    "Source": "4",
    "Target": "65",
    "Service Type": "State"
  },
  {
    "ID": "66",
    "LABEL": "Dawson County High School",
    "LATITUDE": "47.12000984",
    "LONGITUDE": "-104.7046355",
    "GROUP": "Impacted Organization",
    "TOTAL ORGS IMPACTED": null,
    "Source": "5",
    "Target": "66",
    "Service Type": "State"
  },
  {
    "ID": "67",
    "LABEL": "Job Service Division",
    "LATITUDE": "47.11062408",
    "LONGITUDE": "-104.7162995",
    "GROUP": "Impacted Organization",
    "TOTAL ORGS IMPACTED": null,
    "Source": "5",
    "Target": "67",
    "Service Type": "State"
  },
  {
    "ID": "68",
    "LABEL": "Jefferson Elementary School",
    "LATITUDE": "47.12190882",
    "LONGITUDE": "-104.7526236",
    "GROUP": "Impacted Organization",
    "TOTAL ORGS IMPACTED": null,
    "Source": "5",
    "Target": "68",
    "Service Type": "State"
  },
  {
    "ID": "69",
    "LABEL": "Lincoln Middle School",
    "LATITUDE": null,
    "LONGITUDE": null,
    "GROUP": "Impacted Organization",
    "TOTAL ORGS IMPACTED": null,
    "Source": "5",
    "Target": "69",
    "Service Type": "State"
  },
  {
    "ID": "70",
    "LABEL": "Glendive Public Library ",
    "LATITUDE": "47.10410551",
    "LONGITUDE": "-104.7158888",
    "GROUP": "Impacted Organization",
    "TOTAL ORGS IMPACTED": null,
    "Source": "5",
    "Target": "70",
    "Service Type": "State"
  },
  {
    "ID": "71",
    "LABEL": "Garden City Harvest",
    "LATITUDE": "46.87528482",
    "LONGITUDE": "-114.0224281",
    "GROUP": "Impacted Organization",
    "TOTAL ORGS IMPACTED": null,
    "Source": "6",
    "Target": "71",
    "Service Type": "State"
  },
  {
    "ID": "72",
    "LABEL": "Missoula Public Library ",
    "LATITUDE": "46.86988172",
    "LONGITUDE": "-113.9898297",
    "GROUP": "Impacted Organization",
    "TOTAL ORGS IMPACTED": null,
    "Source": "6",
    "Target": "72",
    "Service Type": "State"
  },
  {
    "ID": "73",
    "LABEL": "Missoula Natural History Museum",
    "LATITUDE": "46.87069208",
    "LONGITUDE": "-114.0063526",
    "GROUP": "Impacted Organization",
    "TOTAL ORGS IMPACTED": null,
    "Source": "6",
    "Target": "73",
    "Service Type": "State"
  },
  {
    "ID": "74",
    "LABEL": "Cultural Resource Department",
    "LATITUDE": null,
    "LONGITUDE": null,
    "GROUP": "Impacted Organization",
    "TOTAL ORGS IMPACTED": null,
    "Source": "7",
    "Target": "74",
    "Service Type": "State"
  },
  {
    "ID": "75",
    "LABEL": "University of Montana",
    "LATITUDE": "46.86201891",
    "LONGITUDE": "-113.9846291",
    "GROUP": "Impacted Organization",
    "TOTAL ORGS IMPACTED": null,
    "Source": "7",
    "Target": "75",
    "Service Type": "State"
  },
  {
    "ID": "76",
    "LABEL": "University of Montana ",
    "LATITUDE": "46.86201891",
    "LONGITUDE": "-113.9846291",
    "GROUP": "Impacted Organization",
    "TOTAL ORGS IMPACTED": null,
    "Source": "9",
    "Target": "76",
    "Service Type": "State"
  },
  {
    "ID": "77",
    "LABEL": "Parks and Recreation",
    "LATITUDE": "45.78887795",
    "LONGITUDE": "-108.5012129",
    "GROUP": "Impacted Organization",
    "TOTAL ORGS IMPACTED": null,
    "Source": "10",
    "Target": "77",
    "Service Type": "State"
  },
  {
    "ID": "78",
    "LABEL": "CARE Academy",
    "LATITUDE": "45.75139256",
    "LONGITUDE": "-108.5703416",
    "GROUP": "Impacted Organization",
    "TOTAL ORGS IMPACTED": null,
    "Source": "10",
    "Target": "78",
    "Service Type": "State"
  },
  {
    "ID": "79",
    "LABEL": "Montana Audubon Center",
    "LATITUDE": "45.7431251",
    "LONGITUDE": "-108.5391488",
    "GROUP": "Impacted Organization",
    "TOTAL ORGS IMPACTED": null,
    "Source": "10",
    "Target": "79",
    "Service Type": "State"
  },
  {
    "ID": "80",
    "LABEL": "YMCA ",
    "LATITUDE": "45.78300718",
    "LONGITUDE": "-108.5143622",
    "GROUP": "Impacted Organization",
    "TOTAL ORGS IMPACTED": null,
    "Source": "10",
    "Target": "80",
    "Service Type": "State"
  },
  {
    "ID": "81",
    "LABEL": "Bitterroot Sip and Paint",
    "LATITUDE": "45.76966056",
    "LONGITUDE": "-108.548239",
    "GROUP": "Impacted Organization",
    "TOTAL ORGS IMPACTED": null,
    "Source": "10",
    "Target": "81",
    "Service Type": "State"
  },
  {
    "ID": "82",
    "LABEL": "Billings Parks and Recreation",
    "LATITUDE": "45.78714585",
    "LONGITUDE": "-108.501479",
    "GROUP": "Impacted Organization",
    "TOTAL ORGS IMPACTED": null,
    "Source": "10",
    "Target": "82",
    "Service Type": "State"
  },
  {
    "ID": "83",
    "LABEL": "Great Falls Community Food Bank",
    "LATITUDE": "47.5178097",
    "LONGITUDE": "-111.2791098",
    "GROUP": "Impacted Organization",
    "TOTAL ORGS IMPACTED": null,
    "Source": "11",
    "Target": "83",
    "Service Type": "State"
  },
  {
    "ID": "84",
    "LABEL": "Great Falls LGBTQ+ Center",
    "LATITUDE": "47.50599161",
    "LONGITUDE": "-111.2825759",
    "GROUP": "Impacted Organization",
    "TOTAL ORGS IMPACTED": null,
    "Source": "11",
    "Target": "84",
    "Service Type": "State"
  },
  {
    "ID": "85",
    "LABEL": "NASPA Center for First-Generation Student Success",
    "LATITUDE": null,
    "LONGITUDE": null,
    "GROUP": "Impacted Organization",
    "TOTAL ORGS IMPACTED": null,
    "Source": "11",
    "Target": "85",
    "Service Type": "State"
  },
  {
    "ID": "86",
    "LABEL": "Mountain View Elementary",
    "LATITUDE": "47.48825829",
    "LONGITUDE": "-111.2446251",
    "GROUP": "Impacted Organization",
    "TOTAL ORGS IMPACTED": null,
    "Source": "11",
    "Target": "86",
    "Service Type": "State"
  },
  {
    "ID": "87",
    "LABEL": "Lewis & Clark Elementary",
    "LATITUDE": "47.50671154",
    "LONGITUDE": "-111.2412295",
    "GROUP": "Impacted Organization",
    "TOTAL ORGS IMPACTED": null,
    "Source": "11",
    "Target": "87",
    "Service Type": "State"
  },
  {
    "ID": "88",
    "LABEL": "Alliance for Youth",
    "LATITUDE": "47.50844302",
    "LONGITUDE": "-111.2503182",
    "GROUP": "Impacted Organization",
    "TOTAL ORGS IMPACTED": null,
    "Source": "11",
    "Target": "88",
    "Service Type": "State"
  },
  {
    "ID": "89",
    "LABEL": "YWCA",
    "LATITUDE": "46.8674307",
    "LONGITUDE": "-114.0240605",
    "GROUP": "Impacted Organization",
    "TOTAL ORGS IMPACTED": null,
    "Source": "11",
    "Target": "89",
    "Service Type": "State"
  },
  {
    "ID": "90",
    "LABEL": "L.O.V.E.",
    "LATITUDE": null,
    "LONGITUDE": null,
    "GROUP": "Impacted Organization",
    "TOTAL ORGS IMPACTED": null,
    "Source": "11",
    "Target": "90",
    "Service Type": "State"
  },
  {
    "ID": "91",
    "LABEL": "Toby's House",
    "LATITUDE": "47.51070803",
    "LONGITUDE": "-111.2986998",
    "GROUP": "Impacted Organization",
    "TOTAL ORGS IMPACTED": null,
    "Source": "11",
    "Target": "91",
    "Service Type": "State"
  },
  {
    "ID": "92",
    "LABEL": "Cascade County United Way",
    "LATITUDE": "47.5328324",
    "LONGITUDE": "-111.2750033",
    "GROUP": "Impacted Organization",
    "TOTAL ORGS IMPACTED": null,
    "Source": "11",
    "Target": "92",
    "Service Type": "State"
  },
  {
    "ID": "93",
    "LABEL": "Teller Wildlife",
    "LATITUDE": "46.32762455",
    "LONGITUDE": "-114.113175",
    "GROUP": "Impacted Organization",
    "TOTAL ORGS IMPACTED": null,
    "Source": "12",
    "Target": "93",
    "Service Type": "State"
  },
  {
    "ID": "94",
    "LABEL": "BEAR",
    "LATITUDE": "46.24956583",
    "LONGITUDE": "-114.1712396",
    "GROUP": "Impacted Organization",
    "TOTAL ORGS IMPACTED": null,
    "Source": "12",
    "Target": "94",
    "Service Type": "State"
  },
  {
    "ID": "95",
    "LABEL": "Cultivating Connections",
    "LATITUDE": "46.20292596",
    "LONGITUDE": "-114.156604",
    "GROUP": "Impacted Organization",
    "TOTAL ORGS IMPACTED": null,
    "Source": "12",
    "Target": "95",
    "Service Type": "State"
  },
  {
    "ID": "96",
    "LABEL": "Chief Charlo Elementary School",
    "LATITUDE": "46.81895575",
    "LONGITUDE": "-114.0314683",
    "GROUP": "Impacted Organization",
    "TOTAL ORGS IMPACTED": null,
    "Source": "13",
    "Target": "96",
    "Service Type": "State"
  },
  {
    "ID": "97",
    "LABEL": "Montana Missoula Food Bank",
    "LATITUDE": "46.87213334",
    "LONGITUDE": "-114.0228862",
    "GROUP": "Impacted Organization",
    "TOTAL ORGS IMPACTED": null,
    "Source": "13",
    "Target": "97",
    "Service Type": "State"
  },
  {
    "ID": "98",
    "LABEL": "Yellowstone Boys and Girls Club",
    "LATITUDE": "45.76031055",
    "LONGITUDE": "-108.5247865",
    "GROUP": "Impacted Organization",
    "TOTAL ORGS IMPACTED": null,
    "Source": "13",
    "Target": "98",
    "Service Type": "State"
  },
  {
    "ID": "99",
    "LABEL": "Big Sky High School",
    "LATITUDE": "46.8506012",
    "LONGITUDE": "-114.0576751",
    "GROUP": "Impacted Organization",
    "TOTAL ORGS IMPACTED": null,
    "Source": "13",
    "Target": "99",
    "Service Type": "State"
  },
  {
    "ID": "100",
    "LABEL": "Sentinel High School",
    "LATITUDE": "46.84819293",
    "LONGITUDE": "-114.0094876",
    "GROUP": "Impacted Organization",
    "TOTAL ORGS IMPACTED": null,
    "Source": "13",
    "Target": "100",
    "Service Type": "State"
  },
  {
    "ID": "101",
    "LABEL": "Empower Place (Missoula Food Bank & Community Center)",
    "LATITUDE": "46.87213334",
    "LONGITUDE": "-114.0228862",
    "GROUP": "Impacted Organization",
    "TOTAL ORGS IMPACTED": null,
    "Source": "13",
    "Target": "101",
    "Service Type": "State"
  },
  {
    "ID": "102",
    "LABEL": "Boys and Girls Club",
    "LATITUDE": "46.84577328",
    "LONGITUDE": "-114.0198076",
    "GROUP": "Impacted Organization",
    "TOTAL ORGS IMPACTED": null,
    "Source": "13",
    "Target": "102",
    "Service Type": "State"
  },
  {
    "ID": "103",
    "LABEL": "SpectrUM at the Missoula Food Bank",
    "LATITUDE": "46.87213334",
    "LONGITUDE": "-114.0228862",
    "GROUP": "Impacted Organization",
    "TOTAL ORGS IMPACTED": null,
    "Source": "13",
    "Target": "103",
    "Service Type": "State"
  },
  {
    "ID": "104",
    "LABEL": "Missoula Youth Soccer Alliance",
    "LATITUDE": "46.87343413",
    "LONGITUDE": "-114.0433656",
    "GROUP": "Impacted Organization",
    "TOTAL ORGS IMPACTED": null,
    "Source": "13",
    "Target": "104",
    "Service Type": "State"
  },
  {
    "ID": "105",
    "LABEL": "River City Roots Festival ",
    "LATITUDE": "46.87066667",
    "LONGITUDE": "-113.9921293",
    "GROUP": "Impacted Organization",
    "TOTAL ORGS IMPACTED": null,
    "Source": "13",
    "Target": "105",
    "Service Type": "State"
  },
  {
    "ID": "106",
    "LABEL": "Missoula Soccer Alliance ",
    "LATITUDE": "46.87343413",
    "LONGITUDE": "-114.0433656",
    "GROUP": "Impacted Organization",
    "TOTAL ORGS IMPACTED": null,
    "Source": "13",
    "Target": "106",
    "Service Type": "State"
  },
  {
    "ID": "107",
    "LABEL": "Missoula Downtown Association ",
    "LATITUDE": "46.87066667",
    "LONGITUDE": "-113.9921293",
    "GROUP": "Impacted Organization",
    "TOTAL ORGS IMPACTED": null,
    "Source": "13",
    "Target": "107",
    "Service Type": "State"
  },
  {
    "ID": "108",
    "LABEL": "Missoula County Public School System",
    "LATITUDE": "46.8477699",
    "LONGITUDE": "-114.0123914",
    "GROUP": "Impacted Organization",
    "TOTAL ORGS IMPACTED": null,
    "Source": "14",
    "Target": "108",
    "Service Type": "State"
  },
  {
    "ID": "109",
    "LABEL": "Soft Landing Missoula",
    "LATITUDE": "46.85768751",
    "LONGITUDE": "-114.0118457",
    "GROUP": "Impacted Organization",
    "TOTAL ORGS IMPACTED": null,
    "Source": "14",
    "Target": "109",
    "Service Type": "State"
  },
  {
    "ID": "110",
    "LABEL": "American Foundation for Suicide Prevention",
    "LATITUDE": null,
    "LONGITUDE": null,
    "GROUP": "Impacted Organization",
    "TOTAL ORGS IMPACTED": null,
    "Source": "14",
    "Target": "110",
    "Service Type": "State"
  },
  {
    "ID": "111",
    "LABEL": "Department of Health and Human Services",
    "LATITUDE": "46.88580147",
    "LONGITUDE": "-114.0294311",
    "GROUP": "Impacted Organization",
    "TOTAL ORGS IMPACTED": null,
    "Source": "14",
    "Target": "111",
    "Service Type": "State"
  },
  {
    "ID": "112",
    "LABEL": "University of Montana ",
    "LATITUDE": "46.86201891",
    "LONGITUDE": "-113.9846291",
    "GROUP": "Impacted Organization",
    "TOTAL ORGS IMPACTED": null,
    "Source": "14",
    "Target": "112",
    "Service Type": "State"
  },
  {
    "ID": "113",
    "LABEL": "Missoula College ",
    "LATITUDE": "46.86487911",
    "LONGITUDE": "-113.9758648",
    "GROUP": "Impacted Organization",
    "TOTAL ORGS IMPACTED": null,
    "Source": "14",
    "Target": "113",
    "Service Type": "State"
  },
  {
    "ID": "114",
    "LABEL": "Lowell Elementary",
    "LATITUDE": "46.88094965",
    "LONGITUDE": "-114.008521",
    "GROUP": "Impacted Organization",
    "TOTAL ORGS IMPACTED": null,
    "Source": "14",
    "Target": "114",
    "Service Type": "State"
  },
  {
    "ID": "115",
    "LABEL": "Hawthorne Elementary ",
    "LATITUDE": "46.8667368",
    "LONGITUDE": "-114.0522382",
    "GROUP": "Impacted Organization",
    "TOTAL ORGS IMPACTED": null,
    "Source": "14",
    "Target": "115",
    "Service Type": "State"
  },
  {
    "ID": "116",
    "LABEL": "C.S. Porter Middle School ",
    "LATITUDE": "46.85128063",
    "LONGITUDE": "-114.0416599",
    "GROUP": "Impacted Organization",
    "TOTAL ORGS IMPACTED": null,
    "Source": "14",
    "Target": "116",
    "Service Type": "State"
  },
  {
    "ID": "117",
    "LABEL": "Hellgate High School ",
    "LATITUDE": "46.86291451",
    "LONGITUDE": "-113.9971833",
    "GROUP": "Impacted Organization",
    "TOTAL ORGS IMPACTED": null,
    "Source": "14",
    "Target": "117",
    "Service Type": "State"
  },
  {
    "ID": "118",
    "LABEL": "Montana DPHHS",
    "LATITUDE": "46.88580147",
    "LONGITUDE": "-114.0294311",
    "GROUP": "Impacted Organization",
    "TOTAL ORGS IMPACTED": null,
    "Source": "14",
    "Target": "118",
    "Service Type": "State"
  },
  {
    "ID": "119",
    "LABEL": "Little Twigs Daycare",
    "LATITUDE": "46.84911039",
    "LONGITUDE": "-114.0246622",
    "GROUP": "Impacted Organization",
    "TOTAL ORGS IMPACTED": null,
    "Source": "14",
    "Target": "119",
    "Service Type": "State"
  },
  {
    "ID": "120",
    "LABEL": "Busy Bee Daycare",
    "LATITUDE": "46.85987999",
    "LONGITUDE": "-114.038336",
    "GROUP": "Impacted Organization",
    "TOTAL ORGS IMPACTED": null,
    "Source": "14",
    "Target": "120",
    "Service Type": "State"
  },
  {
    "ID": "121",
    "LABEL": "Partnership Health Center ",
    "LATITUDE": "46.87709065",
    "LONGITUDE": "-113.996437",
    "GROUP": "Impacted Organization",
    "TOTAL ORGS IMPACTED": null,
    "Source": "14",
    "Target": "121",
    "Service Type": "State"
  },
  {
    "ID": "122",
    "LABEL": "Origins Daycare ",
    "LATITUDE": "46.85995543",
    "LONGITUDE": "-114.0318542",
    "GROUP": "Impacted Organization",
    "TOTAL ORGS IMPACTED": null,
    "Source": "14",
    "Target": "122",
    "Service Type": "State"
  },
  {
    "ID": "123",
    "LABEL": "The Growing Tree Daycare ",
    "LATITUDE": "46.86685679",
    "LONGITUDE": "-114.0220239",
    "GROUP": "Impacted Organization",
    "TOTAL ORGS IMPACTED": null,
    "Source": "14",
    "Target": "123",
    "Service Type": "State"
  },
  {
    "ID": "124",
    "LABEL": "Hellgate Elementary ",
    "LATITUDE": "46.89316712",
    "LONGITUDE": "-114.0569529",
    "GROUP": "Impacted Organization",
    "TOTAL ORGS IMPACTED": null,
    "Source": "14",
    "Target": "124",
    "Service Type": "State"
  },
  {
    "ID": "125",
    "LABEL": "Raise Montana ",
    "LATITUDE": "46.75818976",
    "LONGITUDE": "-114.0803111",
    "GROUP": "Impacted Organization",
    "TOTAL ORGS IMPACTED": null,
    "Source": "14",
    "Target": "125",
    "Service Type": "State"
  },
  {
    "ID": "126",
    "LABEL": "YMCA ",
    "LATITUDE": "46.84315086",
    "LONGITUDE": "-114.0169497",
    "GROUP": "Impacted Organization",
    "TOTAL ORGS IMPACTED": null,
    "Source": "14",
    "Target": "126",
    "Service Type": "State"
  },
  {
    "ID": "127",
    "LABEL": "Meadowlarks Daycare ",
    "LATITUDE": "46.87040256",
    "LONGITUDE": "-114.0320761",
    "GROUP": "Impacted Organization",
    "TOTAL ORGS IMPACTED": null,
    "Source": "14",
    "Target": "127",
    "Service Type": "State"
  },
  {
    "ID": "128",
    "LABEL": "Missoula Public Library ",
    "LATITUDE": "46.86988172",
    "LONGITUDE": "-113.9898297",
    "GROUP": "Impacted Organization",
    "TOTAL ORGS IMPACTED": null,
    "Source": "14",
    "Target": "128",
    "Service Type": "State"
  },
  {
    "ID": "129",
    "LABEL": "Clay Studio",
    "LATITUDE": "46.88294221",
    "LONGITUDE": "-114.006842",
    "GROUP": "Impacted Organization",
    "TOTAL ORGS IMPACTED": null,
    "Source": "14",
    "Target": "129",
    "Service Type": "State"
  },
  {
    "ID": "130",
    "LABEL": "Freestone Climbing",
    "LATITUDE": "46.88335347",
    "LONGITUDE": "-114.009055",
    "GROUP": "Impacted Organization",
    "TOTAL ORGS IMPACTED": null,
    "Source": "14",
    "Target": "130",
    "Service Type": "State"
  },
  {
    "ID": "130",
    "LABEL": "Child Care Resources",
    "LATITUDE": "46.87414878",
    "LONGITUDE": "-113.9922851",
    "GROUP": "Impacted Organization",
    "TOTAL ORGS IMPACTED": null,
    "Source": "14",
    "Target": "130",
    "Service Type": "State"
  },
  {
    "ID": "131",
    "LABEL": "Amber's Angels",
    "LATITUDE": "46.86082632",
    "LONGITUDE": "-114.0279269",
    "GROUP": "Impacted Organization",
    "TOTAL ORGS IMPACTED": null,
    "Source": "14",
    "Target": "131",
    "Service Type": "State"
  },
  {
    "ID": "132",
    "LABEL": "Fort Belknap Tribal Historic Preservation Office",
    "LATITUDE": "48.48364723",
    "LONGITUDE": "-108.7655021",
    "GROUP": "Impacted Organization",
    "TOTAL ORGS IMPACTED": null,
    "Source": "15",
    "Target": "132",
    "Service Type": "State"
  },
  {
    "ID": "133",
    "LABEL": "Blackfeet Tribal Historic Preservation Office",
    "LATITUDE": "48.66240891",
    "LONGITUDE": "-113.0144281",
    "GROUP": "Impacted Organization",
    "TOTAL ORGS IMPACTED": null,
    "Source": "15",
    "Target": "133",
    "Service Type": "State"
  },
  {
    "ID": "134",
    "LABEL": "Aaniiih Nakoda College",
    "LATITUDE": "48.48422448",
    "LONGITUDE": "-108.7591764",
    "GROUP": "Impacted Organization",
    "TOTAL ORGS IMPACTED": null,
    "Source": "15",
    "Target": "134",
    "Service Type": "State"
  },
  {
    "ID": "135",
    "LABEL": "Bitterroot Community College",
    "LATITUDE": "46.24620604",
    "LONGITUDE": "-114.1681224",
    "GROUP": "Impacted Organization",
    "TOTAL ORGS IMPACTED": null,
    "Source": "15",
    "Target": "135",
    "Service Type": "State"
  },
  {
    "ID": "136",
    "LABEL": "Blackfeet Community College",
    "LATITUDE": "48.55195069",
    "LONGITUDE": "-113.0093085",
    "GROUP": "Impacted Organization",
    "TOTAL ORGS IMPACTED": null,
    "Source": "15",
    "Target": "136",
    "Service Type": "State"
  },
  {
    "ID": "137",
    "LABEL": "Montana State University",
    "LATITUDE": "45.66747234",
    "LONGITUDE": "-111.0545782",
    "GROUP": "Impacted Organization",
    "TOTAL ORGS IMPACTED": null,
    "Source": "15",
    "Target": "137",
    "Service Type": "State"
  },
  {
    "ID": "138",
    "LABEL": "University of Montana ",
    "LATITUDE": "46.86201891",
    "LONGITUDE": "-113.9846291",
    "GROUP": "Impacted Organization",
    "TOTAL ORGS IMPACTED": null,
    "Source": "15",
    "Target": "138",
    "Service Type": "State"
  },
  {
    "ID": "139",
    "LABEL": "Corvallis Middle School",
    "LATITUDE": "46.31781791",
    "LONGITUDE": "-114.1153792",
    "GROUP": "Impacted Organization",
    "TOTAL ORGS IMPACTED": null,
    "Source": "15",
    "Target": "139",
    "Service Type": "State"
  },
  {
    "ID": "140",
    "LABEL": "Corvallis High School",
    "LATITUDE": "46.31635499",
    "LONGITUDE": "-114.1153208",
    "GROUP": "Impacted Organization",
    "TOTAL ORGS IMPACTED": null,
    "Source": "15",
    "Target": "140",
    "Service Type": "State"
  },
  {
    "ID": "141",
    "LABEL": "Hamilton Middle School",
    "LATITUDE": "46.24517956",
    "LONGITUDE": "-114.1617706",
    "GROUP": "Impacted Organization",
    "TOTAL ORGS IMPACTED": null,
    "Source": "15",
    "Target": "141",
    "Service Type": "State"
  },
  {
    "ID": "142",
    "LABEL": "Hamilton High School",
    "LATITUDE": "46.25440863",
    "LONGITUDE": "-114.1416111",
    "GROUP": "Impacted Organization",
    "TOTAL ORGS IMPACTED": null,
    "Source": "15",
    "Target": "142",
    "Service Type": "State"
  },
  {
    "ID": "143",
    "LABEL": "CR Anderson Middle School",
    "LATITUDE": "46.59953674",
    "LONGITUDE": "-112.0540079",
    "GROUP": "Impacted Organization",
    "TOTAL ORGS IMPACTED": null,
    "Source": "15",
    "Target": "143",
    "Service Type": "State"
  },
  {
    "ID": "144",
    "LABEL": "Helena Middle School",
    "LATITUDE": "46.59568343",
    "LONGITUDE": "-112.025838",
    "GROUP": "Impacted Organization",
    "TOTAL ORGS IMPACTED": null,
    "Source": "15",
    "Target": "144",
    "Service Type": "State"
  },
  {
    "ID": "145",
    "LABEL": "Capital High School",
    "LATITUDE": "46.61436335",
    "LONGITUDE": "-112.0484467",
    "GROUP": "Impacted Organization",
    "TOTAL ORGS IMPACTED": null,
    "Source": "15",
    "Target": "145",
    "Service Type": "State"
  },
  {
    "ID": "146",
    "LABEL": "Helena High School",
    "LATITUDE": "46.59529391",
    "LONGITUDE": "-112.0186936",
    "GROUP": "Impacted Organization",
    "TOTAL ORGS IMPACTED": null,
    "Source": "15",
    "Target": "146",
    "Service Type": "State"
  },
  {
    "ID": "147",
    "LABEL": "Bitterroot Public Library",
    "LATITUDE": "46.24620171",
    "LONGITUDE": "-114.1594948",
    "GROUP": "Impacted Organization",
    "TOTAL ORGS IMPACTED": null,
    "Source": "15",
    "Target": "147",
    "Service Type": "State"
  },
  {
    "ID": "148",
    "LABEL": "Hamilton Farmers Market",
    "LATITUDE": "46.24445108",
    "LONGITUDE": "-114.1575734",
    "GROUP": "Impacted Organization",
    "TOTAL ORGS IMPACTED": null,
    "Source": "15",
    "Target": "148",
    "Service Type": "State"
  },
  {
    "ID": "149",
    "LABEL": "Helena Farmers Market",
    "LATITUDE": "46.59232674",
    "LONGITUDE": "-112.0385786",
    "GROUP": "Impacted Organization",
    "TOTAL ORGS IMPACTED": null,
    "Source": "15",
    "Target": "149",
    "Service Type": "State"
  },
  {
    "ID": "150",
    "LABEL": "Helena Public Library (Lewis & Clark Library)",
    "LATITUDE": "46.58542236",
    "LONGITUDE": "-112.0417998",
    "GROUP": "Impacted Organization",
    "TOTAL ORGS IMPACTED": null,
    "Source": "15",
    "Target": "150",
    "Service Type": "State"
  },
  {
    "ID": "151",
    "LABEL": "Holter Museum of Art",
    "LATITUDE": "46.5905951",
    "LONGITUDE": "-112.0367827",
    "GROUP": "Impacted Organization",
    "TOTAL ORGS IMPACTED": null,
    "Source": "15",
    "Target": "151",
    "Service Type": "State"
  },
  {
    "ID": "152",
    "LABEL": "Myrna Loy",
    "LATITUDE": "46.58583515",
    "LONGITUDE": "-112.0357227",
    "GROUP": "Impacted Organization",
    "TOTAL ORGS IMPACTED": null,
    "Source": "15",
    "Target": "152",
    "Service Type": "State"
  },
  {
    "ID": "153",
    "LABEL": "Montana Business Assisstance Connection",
    "LATITUDE": "46.58825813",
    "LONGITUDE": "-112.0369084",
    "GROUP": "Impacted Organization",
    "TOTAL ORGS IMPACTED": null,
    "Source": "15",
    "Target": "153",
    "Service Type": "State"
  },
  {
    "ID": "154",
    "LABEL": "Montana State University Billings",
    "LATITUDE": "45.7974977",
    "LONGITUDE": "-108.5217462",
    "GROUP": "Impacted Organization",
    "TOTAL ORGS IMPACTED": null,
    "Source": "17",
    "Target": "154",
    "Service Type": "State"
  },
  {
    "ID": "155",
    "LABEL": "Rocky Mountain College",
    "LATITUDE": "45.79662785",
    "LONGITUDE": "-108.558154",
    "GROUP": "Impacted Organization",
    "TOTAL ORGS IMPACTED": null,
    "Source": "17",
    "Target": "155",
    "Service Type": "State"
  },
  {
    "ID": "156",
    "LABEL": "Montana Zoo",
    "LATITUDE": "45.73236293",
    "LONGITUDE": "-108.6206245",
    "GROUP": "Impacted Organization",
    "TOTAL ORGS IMPACTED": null,
    "Source": "17",
    "Target": "156",
    "Service Type": "State"
  },
  {
    "ID": "157",
    "LABEL": "Peter Yegen Jr. Yellowstone County Museum",
    "LATITUDE": "45.80249861",
    "LONGITUDE": "-108.5376617",
    "GROUP": "Impacted Organization",
    "TOTAL ORGS IMPACTED": null,
    "Source": "17",
    "Target": "157",
    "Service Type": "State"
  },
  {
    "ID": "158",
    "LABEL": "Yelvington Studios",
    "LATITUDE": "45.78471292",
    "LONGITUDE": "-108.5070516",
    "GROUP": "Impacted Organization",
    "TOTAL ORGS IMPACTED": null,
    "Source": "17",
    "Target": "158",
    "Service Type": "State"
  },
  {
    "ID": "159",
    "LABEL": "Billings Flying Service",
    "LATITUDE": "45.80927579",
    "LONGITUDE": "-108.574619",
    "GROUP": "Impacted Organization",
    "TOTAL ORGS IMPACTED": null,
    "Source": "17",
    "Target": "159",
    "Service Type": "State"
  },
  {
    "ID": "160",
    "LABEL": "Butte Tech Upward Bound",
    "LATITUDE": "46.01175841",
    "LONGITUDE": "-112.5574969",
    "GROUP": "Impacted Organization",
    "TOTAL ORGS IMPACTED": null,
    "Source": "17",
    "Target": "160",
    "Service Type": "State"
  },
  {
    "ID": "161",
    "LABEL": "Montana State University Bozeman",
    "LATITUDE": "45.66747234",
    "LONGITUDE": "-111.0545782",
    "GROUP": "Impacted Organization",
    "TOTAL ORGS IMPACTED": null,
    "Source": "17",
    "Target": "161",
    "Service Type": "State"
  },
  {
    "ID": "162",
    "LABEL": "Skyview Highschool ",
    "LATITUDE": "45.83268278",
    "LONGITUDE": "-108.5152611",
    "GROUP": "Impacted Organization",
    "TOTAL ORGS IMPACTED": null,
    "Source": "17",
    "Target": "162",
    "Service Type": "State"
  },
  {
    "ID": "163",
    "LABEL": "West High School",
    "LATITUDE": "45.77229248",
    "LONGITUDE": "-108.5719003",
    "GROUP": "Impacted Organization",
    "TOTAL ORGS IMPACTED": null,
    "Source": "17",
    "Target": "163",
    "Service Type": "State"
  },
  {
    "ID": "164",
    "LABEL": "Senior High School",
    "LATITUDE": "45.78583227",
    "LONGITUDE": "-108.5256979",
    "GROUP": "Impacted Organization",
    "TOTAL ORGS IMPACTED": null,
    "Source": "17",
    "Target": "164",
    "Service Type": "State"
  },
  {
    "ID": "165",
    "LABEL": "Lockwood High School",
    "LATITUDE": "45.79578357",
    "LONGITUDE": "-108.433398",
    "GROUP": "Impacted Organization",
    "TOTAL ORGS IMPACTED": null,
    "Source": "17",
    "Target": "165",
    "Service Type": "State"
  },
  {
    "ID": "166",
    "LABEL": "HRDC of Billings",
    "LATITUDE": "45.77984912",
    "LONGITUDE": "-108.5084948",
    "GROUP": "Impacted Organization",
    "TOTAL ORGS IMPACTED": null,
    "Source": "17",
    "Target": "166",
    "Service Type": "State"
  },
  {
    "ID": "167",
    "LABEL": "FPCC Chante Project",
    "LATITUDE": "48.11372581",
    "LONGITUDE": "-105.1930671",
    "GROUP": "Impacted Organization",
    "TOTAL ORGS IMPACTED": null,
    "Source": "18",
    "Target": "167",
    "Service Type": "State"
  },
  {
    "ID": "168",
    "LABEL": "The Assinniboine & Soiux Tribes Cultural Resource Department ",
    "LATITUDE": "48.1240721",
    "LONGITUDE": "-105.1844863",
    "GROUP": "Impacted Organization",
    "TOTAL ORGS IMPACTED": null,
    "Source": "18",
    "Target": "168",
    "Service Type": "State"
  },
  {
    "ID": "169",
    "LABEL": "Fort Peck Community College ",
    "LATITUDE": "48.11372581",
    "LONGITUDE": "-105.1930671",
    "GROUP": "Impacted Organization",
    "TOTAL ORGS IMPACTED": null,
    "Source": "18",
    "Target": "169",
    "Service Type": "State"
  },
  {
    "ID": "170",
    "LABEL": "Fort Peck Tribal Museum & Archives",
    "LATITUDE": "48.12400764",
    "LONGITUDE": "-105.1844756",
    "GROUP": "Impacted Organization",
    "TOTAL ORGS IMPACTED": null,
    "Source": "18",
    "Target": "170",
    "Service Type": "State"
  },
  {
    "ID": "171",
    "LABEL": "Poplar Middle School",
    "LATITUDE": "48.11131785",
    "LONGITUDE": "-105.2038423",
    "GROUP": "Impacted Organization",
    "TOTAL ORGS IMPACTED": null,
    "Source": "18",
    "Target": "171",
    "Service Type": "State"
  },
  {
    "ID": "172",
    "LABEL": "Cultural Resource Department",
    "LATITUDE": "48.1240721",
    "LONGITUDE": "-105.1844863",
    "GROUP": "Impacted Organization",
    "TOTAL ORGS IMPACTED": null,
    "Source": "18",
    "Target": "172",
    "Service Type": "State"
  },
  {
    "ID": "173",
    "LABEL": "University of Montana ",
    "LATITUDE": "46.86201891",
    "LONGITUDE": "-113.9846291",
    "GROUP": "Impacted Organization",
    "TOTAL ORGS IMPACTED": null,
    "Source": "18",
    "Target": "173",
    "Service Type": "State"
  },
  {
    "ID": "174",
    "LABEL": "Boys and Girls Club of Polson",
    "LATITUDE": "47.68050608",
    "LONGITUDE": "-114.1660795",
    "GROUP": "Impacted Organization",
    "TOTAL ORGS IMPACTED": null,
    "Source": "19",
    "Target": "174",
    "Service Type": "State"
  },
  {
    "ID": "175",
    "LABEL": "Big Sky Film Festival ",
    "LATITUDE": "46.87192553",
    "LONGITUDE": "-113.9964199",
    "GROUP": "Impacted Organization",
    "TOTAL ORGS IMPACTED": null,
    "Source": "19",
    "Target": "175",
    "Service Type": "State"
  },
  {
    "ID": "176",
    "LABEL": "Ronan Boys and Girls Club",
    "LATITUDE": "47.5367228",
    "LONGITUDE": "-114.1016379",
    "GROUP": "Impacted Organization",
    "TOTAL ORGS IMPACTED": null,
    "Source": "19",
    "Target": "176",
    "Service Type": "State"
  },
  {
    "ID": "177",
    "LABEL": "Big Dipper ",
    "LATITUDE": "46.86565345",
    "LONGITUDE": "-113.9979642",
    "GROUP": "Impacted Organization",
    "TOTAL ORGS IMPACTED": null,
    "Source": "19",
    "Target": "177",
    "Service Type": "State"
  },
  {
    "ID": "178",
    "LABEL": "Montana Conservation Corps",
    "LATITUDE": "46.87828648",
    "LONGITUDE": "-113.9984112",
    "GROUP": "Impacted Organization",
    "TOTAL ORGS IMPACTED": null,
    "Source": "19",
    "Target": "178",
    "Service Type": "State"
  },
  {
    "ID": "179",
    "LABEL": "Montana Wildlife Protection Agency ",
    "LATITUDE": null,
    "LONGITUDE": null,
    "GROUP": "Impacted Organization",
    "TOTAL ORGS IMPACTED": null,
    "Source": "19",
    "Target": "179",
    "Service Type": "State"
  },
  {
    "ID": "180",
    "LABEL": "Hungry Hourse Ranger Station ",
    "LATITUDE": "48.38418942",
    "LONGITUDE": "-114.054487",
    "GROUP": "Impacted Organization",
    "TOTAL ORGS IMPACTED": null,
    "Source": "19",
    "Target": "180",
    "Service Type": "State"
  },
  {
    "ID": "181",
    "LABEL": "Mission Mountain Youth Crew",
    "LATITUDE": "46.84272371",
    "LONGITUDE": "-114.056648",
    "GROUP": "Impacted Organization",
    "TOTAL ORGS IMPACTED": null,
    "Source": "19",
    "Target": "181",
    "Service Type": "State"
  },
  {
    "ID": "182",
    "LABEL": "James Welch Native Lit Festival ",
    "LATITUDE": "46.88434076",
    "LONGITUDE": "-113.9977608",
    "GROUP": "Impacted Organization",
    "TOTAL ORGS IMPACTED": null,
    "Source": "19",
    "Target": "182",
    "Service Type": "State"
  },
  {
    "ID": "183",
    "LABEL": "Glacier Native Plant Restoration",
    "LATITUDE": "48.37055862",
    "LONGITUDE": "-114.1870653",
    "GROUP": "Impacted Organization",
    "TOTAL ORGS IMPACTED": null,
    "Source": "19",
    "Target": "183",
    "Service Type": "State"
  },
  {
    "ID": "184",
    "LABEL": "International Rescue Committee",
    "LATITUDE": "46.84116721",
    "LONGITUDE": "-114.0184922",
    "GROUP": "Impacted Organization",
    "TOTAL ORGS IMPACTED": null,
    "Source": "20",
    "Target": "184",
    "Service Type": "State"
  },
  {
    "ID": "185",
    "LABEL": "Hellgate High School",
    "LATITUDE": "46.86291451",
    "LONGITUDE": "-113.9971833",
    "GROUP": "Impacted Organization",
    "TOTAL ORGS IMPACTED": null,
    "Source": "21",
    "Target": "185",
    "Service Type": "State"
  },
  {
    "ID": "186",
    "LABEL": "Willard Alternative High School",
    "LATITUDE": "46.86393506",
    "LONGITUDE": "-114.0101681",
    "GROUP": "Impacted Organization",
    "TOTAL ORGS IMPACTED": null,
    "Source": "21",
    "Target": "186",
    "Service Type": "State"
  },
  {
    "ID": "187",
    "LABEL": "University of Montana ",
    "LATITUDE": "46.86201891",
    "LONGITUDE": "-113.9846291",
    "GROUP": "Impacted Organization",
    "TOTAL ORGS IMPACTED": null,
    "Source": "21",
    "Target": "187",
    "Service Type": "State"
  },
  {
    "ID": "188",
    "LABEL": "The Poverello Center ",
    "LATITUDE": "46.87692496",
    "LONGITUDE": "-114.0090868",
    "GROUP": "Impacted Organization",
    "TOTAL ORGS IMPACTED": null,
    "Source": "21",
    "Target": "188",
    "Service Type": "State"
  },
  {
    "ID": "189",
    "LABEL": "Arts Missoula ",
    "LATITUDE": "46.87343413",
    "LONGITUDE": "-114.0433656",
    "GROUP": "Impacted Organization",
    "TOTAL ORGS IMPACTED": null,
    "Source": "21",
    "Target": "189",
    "Service Type": "State"
  },
  {
    "ID": "190",
    "LABEL": "Barnes & Noble (Missoula)",
    "LATITUDE": "46.89027191",
    "LONGITUDE": "-114.0369369",
    "GROUP": "Impacted Organization",
    "TOTAL ORGS IMPACTED": null,
    "Source": "21",
    "Target": "190",
    "Service Type": "State"
  },
  {
    "ID": "191",
    "LABEL": "Lowell Elementary",
    "LATITUDE": "46.88094965",
    "LONGITUDE": "-114.008521",
    "GROUP": "Impacted Organization",
    "TOTAL ORGS IMPACTED": null,
    "Source": "21",
    "Target": "191",
    "Service Type": "State"
  },
  {
    "ID": "192",
    "LABEL": "Hellgate Elementary ",
    "LATITUDE": "46.89316712",
    "LONGITUDE": "-114.0569529",
    "GROUP": "Impacted Organization",
    "TOTAL ORGS IMPACTED": null,
    "Source": "21",
    "Target": "192",
    "Service Type": "State"
  },
  {
    "ID": "193",
    "LABEL": "International Wildlife Film Festival ",
    "LATITUDE": "46.86452711",
    "LONGITUDE": "-113.997237",
    "GROUP": "Impacted Organization",
    "TOTAL ORGS IMPACTED": null,
    "Source": "21",
    "Target": "193",
    "Service Type": "State"
  },
  {
    "ID": "194",
    "LABEL": "Big Sky Film Festival ",
    "LATITUDE": "46.87192553",
    "LONGITUDE": "-113.9964199",
    "GROUP": "Impacted Organization",
    "TOTAL ORGS IMPACTED": null,
    "Source": "21",
    "Target": "194",
    "Service Type": "State"
  },
  {
    "ID": "195",
    "LABEL": "UM Allies",
    "LATITUDE": "46.86201891",
    "LONGITUDE": "-113.9846291",
    "GROUP": "Impacted Organization",
    "TOTAL ORGS IMPACTED": null,
    "Source": "21",
    "Target": "195",
    "Service Type": "State"
  },
  {
    "ID": "196",
    "LABEL": "Montana Science Fair (UM)",
    "LATITUDE": "46.86201891",
    "LONGITUDE": "-113.9846291",
    "GROUP": "Impacted Organization",
    "TOTAL ORGS IMPACTED": null,
    "Source": "21",
    "Target": "196",
    "Service Type": "State"
  },
  {
    "ID": "197",
    "LABEL": "Girl Scouts of Montana and Wyoming ",
    "LATITUDE": "45.78448786",
    "LONGITUDE": "-108.574041",
    "GROUP": "Impacted Organization",
    "TOTAL ORGS IMPACTED": null,
    "Source": "21",
    "Target": "197",
    "Service Type": "State"
  },
  {
    "ID": "198",
    "LABEL": "Aurora Consulting",
    "LATITUDE": null,
    "LONGITUDE": null,
    "GROUP": "Impacted Organization",
    "TOTAL ORGS IMPACTED": null,
    "Source": "21",
    "Target": "198",
    "Service Type": "State"
  },
  {
    "ID": "199",
    "LABEL": "Indigenous Skye ",
    "LATITUDE": null,
    "LONGITUDE": null,
    "GROUP": "Impacted Organization",
    "TOTAL ORGS IMPACTED": null,
    "Source": "21",
    "Target": "199",
    "Service Type": "State"
  },
  {
    "ID": "200",
    "LABEL": "UM Conference on Undergraduate Research ",
    "LATITUDE": "46.86201891",
    "LONGITUDE": "-113.9846291",
    "GROUP": "Impacted Organization",
    "TOTAL ORGS IMPACTED": null,
    "Source": "21",
    "Target": "200",
    "Service Type": "State"
  },
  {
    "ID": "201",
    "LABEL": "Ronan Middle School ",
    "LATITUDE": "47.52965153",
    "LONGITUDE": "-114.1009731",
    "GROUP": "Impacted Organization",
    "TOTAL ORGS IMPACTED": null,
    "Source": "21",
    "Target": "201",
    "Service Type": "State"
  },
  {
    "ID": "202",
    "LABEL": "The Missoula Butterfly House and Insectarium ",
    "LATITUDE": "46.87343413",
    "LONGITUDE": "-114.0433656",
    "GROUP": "Impacted Organization",
    "TOTAL ORGS IMPACTED": null,
    "Source": "21",
    "Target": "202",
    "Service Type": "State"
  },
  {
    "ID": "203",
    "LABEL": "Potomac School Public Library ",
    "LATITUDE": "46.88156894",
    "LONGITUDE": "-113.5795603",
    "GROUP": "Impacted Organization",
    "TOTAL ORGS IMPACTED": null,
    "Source": "21",
    "Target": "203",
    "Service Type": "State"
  },
  {
    "ID": "204",
    "LABEL": "GSK Science in the Summer ",
    "LATITUDE": "46.86201891",
    "LONGITUDE": "-113.9846291",
    "GROUP": "Impacted Organization",
    "TOTAL ORGS IMPACTED": null,
    "Source": "21",
    "Target": "204",
    "Service Type": "State"
  },
  {
    "ID": "205",
    "LABEL": "SciNation on the Flathead Reservation ",
    "LATITUDE": "46.86996974",
    "LONGITUDE": "-113.9898082",
    "GROUP": "Impacted Organization",
    "TOTAL ORGS IMPACTED": null,
    "Source": "21",
    "Target": "205",
    "Service Type": "State"
  },
  {
    "ID": "206",
    "LABEL": "Ronan Elementary ",
    "LATITUDE": "47.5605483",
    "LONGITUDE": "-114.0931496",
    "GROUP": "Impacted Organization",
    "TOTAL ORGS IMPACTED": null,
    "Source": "21",
    "Target": "206",
    "Service Type": "State"
  },
  {
    "ID": "207",
    "LABEL": "The Confederated Salish and Kootenai Wildlife Management Program ",
    "LATITUDE": "47.69333032",
    "LONGITUDE": "-114.1632759",
    "GROUP": "Impacted Organization",
    "TOTAL ORGS IMPACTED": null,
    "Source": "21",
    "Target": "207",
    "Service Type": "State"
  },
  {
    "ID": "208",
    "LABEL": "Tribal Education ",
    "LATITUDE": "47.60098954",
    "LONGITUDE": "-114.1170551",
    "GROUP": "Impacted Organization",
    "TOTAL ORGS IMPACTED": null,
    "Source": "21",
    "Target": "208",
    "Service Type": "State"
  },
  {
    "ID": "209",
    "LABEL": "Salish Kootenai College",
    "LATITUDE": "47.59755009",
    "LONGITUDE": "-114.1118175",
    "GROUP": "Impacted Organization",
    "TOTAL ORGS IMPACTED": null,
    "Source": "21",
    "Target": "209",
    "Service Type": "State"
  },
  {
    "ID": "210",
    "LABEL": "The National Aeronautics and Space Administration (NASA)",
    "LATITUDE": null,
    "LONGITUDE": null,
    "GROUP": "Impacted Organization",
    "TOTAL ORGS IMPACTED": null,
    "Source": "21",
    "Target": "210",
    "Service Type": "State"
  },
  {
    "ID": "211",
    "LABEL": "Lewis & Clark Elementary",
    "LATITUDE": "46.84560219",
    "LONGITUDE": "-114.0039704",
    "GROUP": "Impacted Organization",
    "TOTAL ORGS IMPACTED": null,
    "Source": "23",
    "Target": "211",
    "Service Type": "State"
  },
  {
    "ID": "212",
    "LABEL": "YWCA Missoula ",
    "LATITUDE": "46.8674307",
    "LONGITUDE": "-114.0240605",
    "GROUP": "Impacted Organization",
    "TOTAL ORGS IMPACTED": null,
    "Source": "23",
    "Target": "212",
    "Service Type": "State"
  },
  {
    "ID": "212",
    "LABEL": "Accelerate Montana",
    "LATITUDE": "46.86564068",
    "LONGITUDE": "-113.9770737",
    "GROUP": "Service Site",
    "TOTAL ORGS IMPACTED": "0",
    "Source": null,
    "Target": null,
    "Service Type": null
  },
  {
    "ID": "213",
    "LABEL": "ARC (Arlee Rehabilitation Center)",
    "LATITUDE": "47.16195525",
    "LONGITUDE": "-114.0871546",
    "GROUP": "Service Site",
    "TOTAL ORGS IMPACTED": "0",
    "Source": null,
    "Target": null,
    "Service Type": null
  },
  {
    "ID": "214",
    "LABEL": "Free Verse - Missoula Writing Collaborative",
    "LATITUDE": "46.85957067",
    "LONGITUDE": "-113.9948286",
    "GROUP": "Service Site",
    "TOTAL ORGS IMPACTED": "0",
    "Source": null,
    "Target": null,
    "Service Type": null
  },
  {
    "ID": "215",
    "LABEL": "Great Falls LGBTQ+ Center",
    "LATITUDE": "47.5060302",
    "LONGITUDE": "-111.2825116",
    "GROUP": "Service Site",
    "TOTAL ORGS IMPACTED": "0",
    "Source": null,
    "Target": null,
    "Service Type": null
  },
  {
    "ID": "216",
    "LABEL": "IRC (International Rescue Committee)",
    "LATITUDE": "46.87762882",
    "LONGITUDE": "-114.0195175",
    "GROUP": "Service Site",
    "TOTAL ORGS IMPACTED": "0",
    "Source": null,
    "Target": null,
    "Service Type": null
  },
  {
    "ID": "217",
    "LABEL": "KALICO Art Center",
    "LATITUDE": "48.19698202",
    "LONGITUDE": "-114.3129627",
    "GROUP": "Service Site",
    "TOTAL ORGS IMPACTED": "0",
    "Source": null,
    "Target": null,
    "Service Type": null
  },
  {
    "ID": "218",
    "LABEL": "MCAN (Montana College Attainment Network)",
    "LATITUDE": "46.01286226",
    "LONGITUDE": "-112.5592164",
    "GROUP": "Service Site",
    "TOTAL ORGS IMPACTED": "0",
    "Source": null,
    "Target": null,
    "Service Type": null
  },
  {
    "ID": "219",
    "LABEL": "Moving Mountains Foundation",
    "LATITUDE": "46.84334668",
    "LONGITUDE": "-114.0187198",
    "GROUP": "Service Site",
    "TOTAL ORGS IMPACTED": "0",
    "Source": null,
    "Target": null,
    "Service Type": null
  },
  {
    "ID": "220",
    "LABEL": "Native American Achievement Center at MSUB",
    "LATITUDE": "45.79697579",
    "LONGITUDE": "-108.5255978",
    "GROUP": "Service Site",
    "TOTAL ORGS IMPACTED": "0",
    "Source": null,
    "Target": null,
    "Service Type": null
  },
  {
    "ID": "221",
    "LABEL": "NCAT (National Center for Appropriate Technology)",
    "LATITUDE": "45.98443647",
    "LONGITUDE": "-112.4865327",
    "GROUP": "Service Site",
    "TOTAL ORGS IMPACTED": "0",
    "Source": null,
    "Target": null,
    "Service Type": null
  },
  {
    "ID": "222",
    "LABEL": "Partner with Place",
    "LATITUDE": "46.86204459",
    "LONGITUDE": "-113.9846398",
    "GROUP": "Service Site",
    "TOTAL ORGS IMPACTED": "0",
    "Source": null,
    "Target": null,
    "Service Type": null
  },
  {
    "ID": "223",
    "LABEL": "Snqweylmistn",
    "LATITUDE": "47.51844074",
    "LONGITUDE": "-114.0976027",
    "GROUP": "Service Site",
    "TOTAL ORGS IMPACTED": "0",
    "Source": null,
    "Target": null,
    "Service Type": null
  },
  {
    "ID": "224",
    "LABEL": "State of Montana Arboretum",
    "LATITUDE": "46.86076565",
    "LONGITUDE": "-113.9838833",
    "GROUP": "Service Site",
    "TOTAL ORGS IMPACTED": "0",
    "Source": null,
    "Target": null,
    "Service Type": null
  },
  {
    "ID": "225",
    "LABEL": "University of Montana Food Pantry",
    "LATITUDE": "46.86088003",
    "LONGITUDE": "-113.9827811",
    "GROUP": "Service Site",
    "TOTAL ORGS IMPACTED": "0",
    "Source": null,
    "Target": null,
    "Service Type": null
  },
  {
    "ID": "226",
    "LABEL": "VAC (Vetereans Advocate Clinic)",
    "LATITUDE": "46.86564068",
    "LONGITUDE": "-113.9770737",
    "GROUP": "Service Site",
    "TOTAL ORGS IMPACTED": "0",
    "Source": null,
    "Target": null,
    "Service Type": null
  },
  {
    "ID": "227",
    "LABEL": "Accelerate Montana Rural Innovation Initiative",
    "LATITUDE": "46.86564068",
    "LONGITUDE": "-113.9770737",
    "GROUP": "Impacted Organization",
    "TOTAL ORGS IMPACTED": null,
    "Source": "212",
    "Target": "227",
    "Service Type": null
  },
  {
    "ID": "228",
    "LABEL": "Blackfeet Community College Library",
    "LATITUDE": "48.55186017",
    "LONGITUDE": "-113.0093722",
    "GROUP": "Impacted Organization",
    "TOTAL ORGS IMPACTED": null,
    "Source": "212",
    "Target": "228",
    "Service Type": null
  },
  {
    "ID": "229",
    "LABEL": "Dumond's Custom Furniture",
    "LATITUDE": "46.31100695",
    "LONGITUDE": "-113.9742986",
    "GROUP": "Impacted Organization",
    "TOTAL ORGS IMPACTED": null,
    "Source": "212",
    "Target": "229",
    "Service Type": null
  },
  {
    "ID": "230",
    "LABEL": "ARC (Arlee Rehabilitation Center)",
    "LATITUDE": "47.16195525",
    "LONGITUDE": "-114.0871546",
    "GROUP": "Impacted Organization",
    "TOTAL ORGS IMPACTED": null,
    "Source": "213",
    "Target": "230",
    "Service Type": null
  },
  {
    "ID": "231",
    "LABEL": "Missoula Writing Collaborative",
    "LATITUDE": "46.84286339",
    "LONGITUDE": "-114.0560437",
    "GROUP": "Impacted Organization",
    "TOTAL ORGS IMPACTED": null,
    "Source": "214",
    "Target": "231",
    "Service Type": null
  },
  {
    "ID": "232",
    "LABEL": "Free Verse Writing Project",
    "LATITUDE": "46.85957067",
    "LONGITUDE": "-113.9948286",
    "GROUP": "Impacted Organization",
    "TOTAL ORGS IMPACTED": null,
    "Source": "214",
    "Target": "232",
    "Service Type": "VISTA"
  },
  {
    "ID": "233",
    "LABEL": "SPARK Arts",
    "LATITUDE": "46.87083718",
    "LONGITUDE": "-113.9903465",
    "GROUP": "Impacted Organization",
    "TOTAL ORGS IMPACTED": null,
    "Source": "214",
    "Target": "233",
    "Service Type": "VISTA"
  },
  {
    "ID": "234",
    "LABEL": "Montana Innocence Project",
    "LATITUDE": "46.8612074",
    "LONGITUDE": "-113.9822567",
    "GROUP": "Impacted Organization",
    "TOTAL ORGS IMPACTED": null,
    "Source": "214",
    "Target": "234",
    "Service Type": "VISTA"
  },
  {
    "ID": "235",
    "LABEL": "Zoo Town Arts Center",
    "LATITUDE": "46.87187884",
    "LONGITUDE": "-113.9965429",
    "GROUP": "Impacted Organization",
    "TOTAL ORGS IMPACTED": null,
    "Source": "214",
    "Target": "235",
    "Service Type": "VISTA"
  },
  {
    "ID": "236",
    "LABEL": "Young Poets",
    "LATITUDE": null,
    "LONGITUDE": null,
    "GROUP": "Impacted Organization",
    "TOTAL ORGS IMPACTED": null,
    "Source": "214",
    "Target": "236",
    "Service Type": "VISTA"
  },
  {
    "ID": "237",
    "LABEL": "Missoula Public Library",
    "LATITUDE": "46.86985528",
    "LONGITUDE": "-113.9898416",
    "GROUP": "Impacted Organization",
    "TOTAL ORGS IMPACTED": null,
    "Source": "214",
    "Target": "237",
    "Service Type": "VISTA"
  },
  {
    "ID": "238",
    "LABEL": "Missoual Art Museum",
    "LATITUDE": "46.87245848",
    "LONGITUDE": "-113.9923734",
    "GROUP": "Impacted Organization",
    "TOTAL ORGS IMPACTED": null,
    "Source": "214",
    "Target": "238",
    "Service Type": "VISTA"
  },
  {
    "ID": "239",
    "LABEL": "Great Falls LGBTQ+ Center",
    "LATITUDE": "47.5060302",
    "LONGITUDE": "-111.2825116",
    "GROUP": "Impacted Organization",
    "TOTAL ORGS IMPACTED": null,
    "Source": "215",
    "Target": "239",
    "Service Type": "VISTA"
  },
  {
    "ID": "240",
    "LABEL": "Great Falls College",
    "LATITUDE": "47.48600004",
    "LONGITUDE": "-111.2698227",
    "GROUP": "Impacted Organization",
    "TOTAL ORGS IMPACTED": null,
    "Source": "215",
    "Target": "240",
    "Service Type": "VISTA"
  },
  {
    "ID": "241",
    "LABEL": "C.M. Russell High School",
    "LATITUDE": "47.52027038",
    "LONGITUDE": "-111.3192399",
    "GROUP": "Impacted Organization",
    "TOTAL ORGS IMPACTED": null,
    "Source": "215",
    "Target": "241",
    "Service Type": "VISTA"
  },
  {
    "ID": "242",
    "LABEL": "Montana State University College of Nursing (Great Falls)",
    "LATITUDE": "47.48862379",
    "LONGITUDE": "-111.3003589",
    "GROUP": "Impacted Organization",
    "TOTAL ORGS IMPACTED": null,
    "Source": "215",
    "Target": "242",
    "Service Type": "VISTA"
  },
  {
    "ID": "243",
    "LABEL": "Alliance For Youth",
    "LATITUDE": "47.49239362",
    "LONGITUDE": "-111.2505824",
    "GROUP": "Impacted Organization",
    "TOTAL ORGS IMPACTED": null,
    "Source": "215",
    "Target": "243",
    "Service Type": "VISTA"
  },
  {
    "ID": "244",
    "LABEL": "Rominger Counseling",
    "LATITUDE": null,
    "LONGITUDE": null,
    "GROUP": "Impacted Organization",
    "TOTAL ORGS IMPACTED": null,
    "Source": "215",
    "Target": "244",
    "Service Type": "VISTA"
  },
  {
    "ID": "245",
    "LABEL": "Cascade County Juvenile Youth Detention Center",
    "LATITUDE": "47.48810543",
    "LONGITUDE": "-111.2632207",
    "GROUP": "Impacted Organization",
    "TOTAL ORGS IMPACTED": null,
    "Source": "215",
    "Target": "245",
    "Service Type": "VISTA"
  },
  {
    "ID": "246",
    "LABEL": "Great Falls Tribune",
    "LATITUDE": "47.50303075",
    "LONGITUDE": "-111.3086125",
    "GROUP": "Impacted Organization",
    "TOTAL ORGS IMPACTED": null,
    "Source": "215",
    "Target": "246",
    "Service Type": "VISTA"
  },
  {
    "ID": "247",
    "LABEL": "Great Falls KRTV News",
    "LATITUDE": "47.49258956",
    "LONGITUDE": "-111.3027578",
    "GROUP": "Impacted Organization",
    "TOTAL ORGS IMPACTED": null,
    "Source": "215",
    "Target": "247",
    "Service Type": "VISTA"
  },
  {
    "ID": "248",
    "LABEL": "First Congregational United Church of Christ",
    "LATITUDE": null,
    "LONGITUDE": null,
    "GROUP": "Impacted Organization",
    "TOTAL ORGS IMPACTED": null,
    "Source": "215",
    "Target": "248",
    "Service Type": "VISTA"
  },
  {
    "ID": "249",
    "LABEL": "Great Falls Counseling Association",
    "LATITUDE": "47.49678795",
    "LONGITUDE": "-111.2904686",
    "GROUP": "Impacted Organization",
    "TOTAL ORGS IMPACTED": null,
    "Source": "215",
    "Target": "249",
    "Service Type": "VISTA"
  },
  {
    "ID": "250",
    "LABEL": "IRC (International Rescue COmmittee)",
    "LATITUDE": "46.87762882",
    "LONGITUDE": "-114.0195175",
    "GROUP": "Impacted Organization",
    "TOTAL ORGS IMPACTED": null,
    "Source": "216",
    "Target": "250",
    "Service Type": "VISTA"
  },
  {
    "ID": "251",
    "LABEL": "LLC (Lifelong Learning Center)",
    "LATITUDE": "46.86903499",
    "LONGITUDE": "-114.0311628",
    "GROUP": "Impacted Organization",
    "TOTAL ORGS IMPACTED": null,
    "Source": "216",
    "Target": "251",
    "Service Type": "VISTA"
  },
  {
    "ID": "252",
    "LABEL": "Kalispell Public Schools-SD #5",
    "LATITUDE": "48.19698711",
    "LONGITUDE": "-114.3110319",
    "GROUP": "Impacted Organization",
    "TOTAL ORGS IMPACTED": null,
    "Source": "217",
    "Target": "252",
    "Service Type": "VISTA"
  },
  {
    "ID": "253",
    "LABEL": "Charter College",
    "LATITUDE": "46.85229428",
    "LONGITUDE": "-114.0102792",
    "GROUP": "Impacted Organization",
    "TOTAL ORGS IMPACTED": null,
    "Source": "218",
    "Target": "253",
    "Service Type": "VISTA"
  },
  {
    "ID": "254",
    "LABEL": "ASUM Daycare",
    "LATITUDE": "46.8607045",
    "LONGITUDE": "-113.9832855",
    "GROUP": "Impacted Organization",
    "TOTAL ORGS IMPACTED": null,
    "Source": "219",
    "Target": "254",
    "Service Type": "VISTA"
  },
  {
    "ID": "255",
    "LABEL": "Missoula International School",
    "LATITUDE": "46.86736846",
    "LONGITUDE": "-114.0093094",
    "GROUP": "Impacted Organization",
    "TOTAL ORGS IMPACTED": null,
    "Source": "219",
    "Target": "255",
    "Service Type": "VISTA"
  },
  {
    "ID": "256",
    "LABEL": "Bitterroot Early Learning Center",
    "LATITUDE": "46.31108332",
    "LONGITUDE": "-114.1107379",
    "GROUP": "Impacted Organization",
    "TOTAL ORGS IMPACTED": null,
    "Source": "219",
    "Target": "256",
    "Service Type": "VISTA"
  },
  {
    "ID": "257",
    "LABEL": "Angel Keepers Daycare",
    "LATITUDE": "46.7750501",
    "LONGITUDE": "-114.1074386",
    "GROUP": "Impacted Organization",
    "TOTAL ORGS IMPACTED": null,
    "Source": "219",
    "Target": "257",
    "Service Type": "VISTA"
  },
  {
    "ID": "258",
    "LABEL": "Peaceful Heart Preschool",
    "LATITUDE": "46.83740409",
    "LONGITUDE": "-114.0321636",
    "GROUP": "Impacted Organization",
    "TOTAL ORGS IMPACTED": null,
    "Source": "219",
    "Target": "258",
    "Service Type": "VISTA"
  },
  {
    "ID": "259",
    "LABEL": "Sussex School",
    "LATITUDE": "46.86835672",
    "LONGITUDE": "-114.0249404",
    "GROUP": "Impacted Organization",
    "TOTAL ORGS IMPACTED": null,
    "Source": "219",
    "Target": "259",
    "Service Type": "VISTA"
  },
  {
    "ID": "260",
    "LABEL": "TRIO Student Services",
    "LATITUDE": null,
    "LONGITUDE": null,
    "GROUP": "Impacted Organization",
    "TOTAL ORGS IMPACTED": null,
    "Source": "220",
    "Target": "260",
    "Service Type": "VISTA"
  },
  {
    "ID": "261",
    "LABEL": "Billings Urban Indian Health & Wellness Center",
    "LATITUDE": "45.79253039",
    "LONGITUDE": "-108.520199",
    "GROUP": "Impacted Organization",
    "TOTAL ORGS IMPACTED": null,
    "Source": "220",
    "Target": "261",
    "Service Type": "VISTA"
  },
  {
    "ID": "262",
    "LABEL": "Rocky Mountain Tribal Leaders",
    "LATITUDE": "45.77015372",
    "LONGITUDE": "-108.5332663",
    "GROUP": "Impacted Organization",
    "TOTAL ORGS IMPACTED": null,
    "Source": "220",
    "Target": "262",
    "Service Type": "VISTA"
  },
  {
    "ID": "263",
    "LABEL": "Chippewa Cree Tribe",
    "LATITUDE": "48.29198603",
    "LONGITUDE": "-109.8413739",
    "GROUP": "Impacted Organization",
    "TOTAL ORGS IMPACTED": null,
    "Source": "220",
    "Target": "263",
    "Service Type": "VISTA"
  },
  {
    "ID": "264",
    "LABEL": "Fort Peck Tribe",
    "LATITUDE": "48.13072125",
    "LONGITUDE": "-105.4964849",
    "GROUP": "Impacted Organization",
    "TOTAL ORGS IMPACTED": null,
    "Source": "220",
    "Target": "264",
    "Service Type": "VISTA"
  },
  {
    "ID": "265",
    "LABEL": "Native American Development Corporation",
    "LATITUDE": "45.78312006",
    "LONGITUDE": "-108.502447",
    "GROUP": "Impacted Organization",
    "TOTAL ORGS IMPACTED": null,
    "Source": "220",
    "Target": "265",
    "Service Type": "VISTA"
  },
  {
    "ID": "266",
    "LABEL": "Office of Public Instruction",
    "LATITUDE": "46.58949637",
    "LONGITUDE": "-112.0188804",
    "GROUP": "Impacted Organization",
    "TOTAL ORGS IMPACTED": null,
    "Source": "220",
    "Target": "266",
    "Service Type": "VISTA"
  },
  {
    "ID": "267",
    "LABEL": "Chippewa Cree Tribe Department of Indian Education",
    "LATITUDE": "48.29198603",
    "LONGITUDE": "-109.8413739",
    "GROUP": "Impacted Organization",
    "TOTAL ORGS IMPACTED": null,
    "Source": "220",
    "Target": "267",
    "Service Type": "VISTA"
  },
  {
    "ID": "268",
    "LABEL": "MSU Bozeman Center for Bilingual and Multicultural Education",
    "LATITUDE": "45.66754359",
    "LONGITUDE": "-111.0545675",
    "GROUP": "Impacted Organization",
    "TOTAL ORGS IMPACTED": null,
    "Source": "220",
    "Target": "268",
    "Service Type": "VISTA"
  },
  {
    "ID": "269",
    "LABEL": "Fort Peck Tribe's Language and Culture Department",
    "LATITUDE": "48.13072125",
    "LONGITUDE": "-105.4964849",
    "GROUP": "Impacted Organization",
    "TOTAL ORGS IMPACTED": null,
    "Source": "220",
    "Target": "269",
    "Service Type": "VISTA"
  },
  {
    "ID": "270",
    "LABEL": "Crow Agency Public School",
    "LATITUDE": "45.60542142",
    "LONGITUDE": "-107.4585185",
    "GROUP": "Impacted Organization",
    "TOTAL ORGS IMPACTED": null,
    "Source": "220",
    "Target": "270",
    "Service Type": "VISTA"
  },
  {
    "ID": "271",
    "LABEL": "Montana Urban Indian Association",
    "LATITUDE": "47.50863068",
    "LONGITUDE": "-111.3229203",
    "GROUP": "Impacted Organization",
    "TOTAL ORGS IMPACTED": null,
    "Source": "220",
    "Target": "271",
    "Service Type": "VISTA"
  },
  {
    "ID": "272",
    "LABEL": "MSUB New Student Services",
    "LATITUDE": "45.88248274",
    "LONGITUDE": "-108.5175319",
    "GROUP": "Impacted Organization",
    "TOTAL ORGS IMPACTED": null,
    "Source": "220",
    "Target": "272",
    "Service Type": "VISTA"
  },
  {
    "ID": "273",
    "LABEL": "MSUB Financial Aid",
    "LATITUDE": "45.88248274",
    "LONGITUDE": "-108.5175319",
    "GROUP": "Impacted Organization",
    "TOTAL ORGS IMPACTED": null,
    "Source": "220",
    "Target": "273",
    "Service Type": "VISTA"
  },
  {
    "ID": "274",
    "LABEL": "MSUB TRIO",
    "LATITUDE": "45.88248274",
    "LONGITUDE": "-108.5175319",
    "GROUP": "Impacted Organization",
    "TOTAL ORGS IMPACTED": null,
    "Source": "220",
    "Target": "274",
    "Service Type": "VISTA"
  },
  {
    "ID": "275",
    "LABEL": "MSUB Disability Services",
    "LATITUDE": "45.88248274",
    "LONGITUDE": "-108.5175319",
    "GROUP": "Impacted Organization",
    "TOTAL ORGS IMPACTED": null,
    "Source": "220",
    "Target": "275",
    "Service Type": "VISTA"
  },
  {
    "ID": "276",
    "LABEL": "Skyview High School",
    "LATITUDE": "45.83240065",
    "LONGITUDE": "-108.5155417",
    "GROUP": "Impacted Organization",
    "TOTAL ORGS IMPACTED": null,
    "Source": "220",
    "Target": "276",
    "Service Type": "VISTA"
  },
  {
    "ID": "277",
    "LABEL": "MSUB Construction Management Department",
    "LATITUDE": "45.88248274",
    "LONGITUDE": "-108.5175319",
    "GROUP": "Impacted Organization",
    "TOTAL ORGS IMPACTED": null,
    "Source": "220",
    "Target": "277",
    "Service Type": "VISTA"
  },
  {
    "ID": "278",
    "LABEL": "Montana University System Native Serving Institution",
    "LATITUDE": "46.57902381",
    "LONGITUDE": "-112.0417865",
    "GROUP": "Impacted Organization",
    "TOTAL ORGS IMPACTED": null,
    "Source": "220",
    "Target": "278",
    "Service Type": "VISTA"
  },
  {
    "ID": "279",
    "LABEL": "Indian Parent Advisory Committee",
    "LATITUDE": "45.78036313",
    "LONGITUDE": "-108.5489216",
    "GROUP": "Impacted Organization",
    "TOTAL ORGS IMPACTED": null,
    "Source": "220",
    "Target": "279",
    "Service Type": "VISTA"
  },
  {
    "ID": "280",
    "LABEL": "MSUB Teaching and Learnign Department",
    "LATITUDE": "45.88248274",
    "LONGITUDE": "-108.5175319",
    "GROUP": "Impacted Organization",
    "TOTAL ORGS IMPACTED": null,
    "Source": "220",
    "Target": "280",
    "Service Type": "VISTA"
  },
  {
    "ID": "281",
    "LABEL": "Montana Center for Inclusive Education",
    "LATITUDE": "45.79581419",
    "LONGITUDE": "-108.5247078",
    "GROUP": "Impacted Organization",
    "TOTAL ORGS IMPACTED": null,
    "Source": "220",
    "Target": "281",
    "Service Type": "VISTA"
  },
  {
    "ID": "282",
    "LABEL": "One Heart Warriros",
    "LATITUDE": "45.79581419",
    "LONGITUDE": "-108.5247078",
    "GROUP": "Impacted Organization",
    "TOTAL ORGS IMPACTED": null,
    "Source": "220",
    "Target": "282",
    "Service Type": "VISTA"
  },
  {
    "ID": "283",
    "LABEL": "Billings Clinic",
    "LATITUDE": "45.79581419",
    "LONGITUDE": "-108.5247078",
    "GROUP": "Impacted Organization",
    "TOTAL ORGS IMPACTED": null,
    "Source": "220",
    "Target": "283",
    "Service Type": "VISTA"
  },
  {
    "ID": "284",
    "LABEL": "Western Native Voice",
    "LATITUDE": "45.78208956",
    "LONGITUDE": "-108.5755962",
    "GROUP": "Impacted Organization",
    "TOTAL ORGS IMPACTED": null,
    "Source": "220",
    "Target": "284",
    "Service Type": "VISTA"
  },
  {
    "ID": "285",
    "LABEL": "Hardin Schools Alternative Programs",
    "LATITUDE": "45.75024333",
    "LONGITUDE": "-107.607224",
    "GROUP": "Impacted Organization",
    "TOTAL ORGS IMPACTED": null,
    "Source": "220",
    "Target": "285",
    "Service Type": "VISTA"
  },
  {
    "ID": "286",
    "LABEL": "Samira Obeid, LLC. ",
    "LATITUDE": null,
    "LONGITUDE": null,
    "GROUP": "Impacted Organization",
    "TOTAL ORGS IMPACTED": null,
    "Source": "220",
    "Target": "286",
    "Service Type": "VISTA"
  },
  {
    "ID": "287",
    "LABEL": "Island Mountain Development Corporation",
    "LATITUDE": "48.04502166",
    "LONGITUDE": "-108.7083905",
    "GROUP": "Impacted Organization",
    "TOTAL ORGS IMPACTED": null,
    "Source": "220",
    "Target": "287",
    "Service Type": "VISTA"
  },
  {
    "ID": "288",
    "LABEL": "Northern Hotel",
    "LATITUDE": "45.78196856",
    "LONGITUDE": "-108.505359",
    "GROUP": "Impacted Organization",
    "TOTAL ORGS IMPACTED": null,
    "Source": "220",
    "Target": "288",
    "Service Type": "VISTA"
  },
  {
    "ID": "289",
    "LABEL": "Hardin High School Gear Up Program",
    "LATITUDE": "45.75024333",
    "LONGITUDE": "-107.607224",
    "GROUP": "Impacted Organization",
    "TOTAL ORGS IMPACTED": null,
    "Source": "220",
    "Target": "289",
    "Service Type": "VISTA"
  },
  {
    "ID": "290",
    "LABEL": "MSUB College of Business",
    "LATITUDE": "45.88248274",
    "LONGITUDE": "-108.5175319",
    "GROUP": "Impacted Organization",
    "TOTAL ORGS IMPACTED": null,
    "Source": "220",
    "Target": "290",
    "Service Type": "VISTA"
  },
  {
    "ID": "291",
    "LABEL": "Native American Empowerment Project",
    "LATITUDE": "45.78327584",
    "LONGITUDE": "-108.5024772",
    "GROUP": "Impacted Organization",
    "TOTAL ORGS IMPACTED": null,
    "Source": "220",
    "Target": "291",
    "Service Type": "VISTA"
  },
  {
    "ID": "292",
    "LABEL": "All Nation Youth Partnership for Success",
    "LATITUDE": "45.78321042",
    "LONGITUDE": "-108.5097987",
    "GROUP": "Impacted Organization",
    "TOTAL ORGS IMPACTED": null,
    "Source": "220",
    "Target": "292",
    "Service Type": "VISTA"
  },
  {
    "ID": "293",
    "LABEL": "Chief Dull Knife College",
    "LATITUDE": "45.62553013",
    "LONGITUDE": "-106.6646696",
    "GROUP": "Impacted Organization",
    "TOTAL ORGS IMPACTED": null,
    "Source": "220",
    "Target": "293",
    "Service Type": "VISTA"
  },
  {
    "ID": "294",
    "LABEL": "MSUB Housing and Residence Life",
    "LATITUDE": "45.88248274",
    "LONGITUDE": "-108.5175319",
    "GROUP": "Impacted Organization",
    "TOTAL ORGS IMPACTED": null,
    "Source": "220",
    "Target": "294",
    "Service Type": "VISTA"
  },
  {
    "ID": "295",
    "LABEL": "MSUB Grants and Sponsored Programs",
    "LATITUDE": "45.88248274",
    "LONGITUDE": "-108.5175319",
    "GROUP": "Impacted Organization",
    "TOTAL ORGS IMPACTED": null,
    "Source": "220",
    "Target": "295",
    "Service Type": "VISTA"
  },
  {
    "ID": "296",
    "LABEL": "TRIIA",
    "LATITUDE": "45.78345917",
    "LONGITUDE": "-108.502445",
    "GROUP": "Impacted Organization",
    "TOTAL ORGS IMPACTED": null,
    "Source": "220",
    "Target": "296",
    "Service Type": "VISTA"
  },
  {
    "ID": "297",
    "LABEL": "MSUB Department of Biolagical and Physical Sciences",
    "LATITUDE": "45.88248274",
    "LONGITUDE": "-108.5175319",
    "GROUP": "Impacted Organization",
    "TOTAL ORGS IMPACTED": null,
    "Source": "220",
    "Target": "297",
    "Service Type": "VISTA"
  },
  {
    "ID": "298",
    "LABEL": "Montana 10 Scholar Program",
    "LATITUDE": "46.59315992",
    "LONGITUDE": "-112.0405572",
    "GROUP": "Impacted Organization",
    "TOTAL ORGS IMPACTED": null,
    "Source": "220",
    "Target": "298",
    "Service Type": "VISTA"
  },
  {
    "ID": "299",
    "LABEL": "Montana University System",
    "LATITUDE": "46.59315992",
    "LONGITUDE": "-112.0405572",
    "GROUP": "Impacted Organization",
    "TOTAL ORGS IMPACTED": null,
    "Source": "220",
    "Target": "299",
    "Service Type": "VISTA"
  },
  {
    "ID": "300",
    "LABEL": "NCAT (National Center for Appropriate Technology)",
    "LATITUDE": "45.9843501",
    "LONGITUDE": "-112.4865923",
    "GROUP": "Impacted Organization",
    "TOTAL ORGS IMPACTED": null,
    "Source": "221",
    "Target": "300",
    "Service Type": "VISTA"
  },
  {
    "ID": "301",
    "LABEL": "Clark Fork Watershed Education Program",
    "LATITUDE": "47.83715948",
    "LONGITUDE": "-115.5920639",
    "GROUP": "Impacted Organization",
    "TOTAL ORGS IMPACTED": null,
    "Source": "221",
    "Target": "301",
    "Service Type": "VISTA"
  },
  {
    "ID": "302",
    "LABEL": "EcoAdapt",
    "LATITUDE": "46.01170252",
    "LONGITUDE": "-112.5574969",
    "GROUP": "Impacted Organization",
    "TOTAL ORGS IMPACTED": null,
    "Source": "221",
    "Target": "302",
    "Service Type": "VISTA"
  },
  {
    "ID": "303",
    "LABEL": "Butte-Silver Bow County",
    "LATITUDE": "46.36071617",
    "LONGITUDE": "-112.6926372",
    "GROUP": "Impacted Organization",
    "TOTAL ORGS IMPACTED": null,
    "Source": "221",
    "Target": "303",
    "Service Type": "VISTA"
  },
  {
    "ID": "304",
    "LABEL": "Flathead Lakers",
    "LATITUDE": "47.69486333",
    "LONGITUDE": "-114.1641703",
    "GROUP": "Impacted Organization",
    "TOTAL ORGS IMPACTED": null,
    "Source": "221",
    "Target": "304",
    "Service Type": "VISTA"
  },
  {
    "ID": "305",
    "LABEL": "Kalispell City Council",
    "LATITUDE": "48.19694431",
    "LONGITUDE": "-114.3111394",
    "GROUP": "Impacted Organization",
    "TOTAL ORGS IMPACTED": null,
    "Source": "221",
    "Target": "305",
    "Service Type": "VISTA"
  },
  {
    "ID": "306",
    "LABEL": "Montana Technological University",
    "LATITUDE": "46.0115199",
    "LONGITUDE": "-112.5576793",
    "GROUP": "Impacted Organization",
    "TOTAL ORGS IMPACTED": null,
    "Source": "221",
    "Target": "306",
    "Service Type": "VISTA"
  },
  {
    "ID": "307",
    "LABEL": "Missoula Economic Partnership",
    "LATITUDE": "46.8743705",
    "LONGITUDE": "-113.9922631",
    "GROUP": "Impacted Organization",
    "TOTAL ORGS IMPACTED": null,
    "Source": "221",
    "Target": "307",
    "Service Type": "VISTA"
  },
  {
    "ID": "308",
    "LABEL": "Red Lodge City Government",
    "LATITUDE": "45.1859615",
    "LONGITUDE": "-109.2534237",
    "GROUP": "Impacted Organization",
    "TOTAL ORGS IMPACTED": null,
    "Source": "221",
    "Target": "308",
    "Service Type": "VISTA"
  },
  {
    "ID": "309",
    "LABEL": "Opportunity Link",
    "LATITUDE": "48.55154561",
    "LONGITUDE": "-109.6774491",
    "GROUP": "Impacted Organization",
    "TOTAL ORGS IMPACTED": null,
    "Source": "221",
    "Target": "309",
    "Service Type": "VISTA"
  },
  {
    "ID": "310",
    "LABEL": "Havre Park County Environmental Council",
    "LATITUDE": "45.66185584",
    "LONGITUDE": "-110.5573588",
    "GROUP": "Impacted Organization",
    "TOTAL ORGS IMPACTED": null,
    "Source": "221",
    "Target": "310",
    "Service Type": "VISTA"
  },
  {
    "ID": "311",
    "LABEL": "Fort Peck Office of Environmental Protection",
    "LATITUDE": "48.12420101",
    "LONGITUDE": "-105.1845936",
    "GROUP": "Impacted Organization",
    "TOTAL ORGS IMPACTED": null,
    "Source": "221",
    "Target": "311",
    "Service Type": "VISTA"
  },
  {
    "ID": "312",
    "LABEL": "Butte Community Council",
    "LATITUDE": "46.01403955",
    "LONGITUDE": "-112.5360146",
    "GROUP": "Impacted Organization",
    "TOTAL ORGS IMPACTED": null,
    "Source": "221",
    "Target": "312",
    "Service Type": "VISTA"
  },
  {
    "ID": "313",
    "LABEL": "Whitehall Garden Club",
    "LATITUDE": "45.87005899",
    "LONGITUDE": "-112.0998604",
    "GROUP": "Impacted Organization",
    "TOTAL ORGS IMPACTED": null,
    "Source": "221",
    "Target": "313",
    "Service Type": "VISTA"
  },
  {
    "ID": "314",
    "LABEL": "Planning and Zoning Division of the City of Red Lodge",
    "LATITUDE": "45.18674209",
    "LONGITUDE": "-109.245983",
    "GROUP": "Impacted Organization",
    "TOTAL ORGS IMPACTED": null,
    "Source": "221",
    "Target": "314",
    "Service Type": "VISTA"
  },
  {
    "ID": "315",
    "LABEL": "KBOW",
    "LATITUDE": "45.98323336",
    "LONGITUDE": "-112.527631",
    "GROUP": "Impacted Organization",
    "TOTAL ORGS IMPACTED": null,
    "Source": "221",
    "Target": "315",
    "Service Type": "VISTA"
  },
  {
    "ID": "316",
    "LABEL": "KXLF",
    "LATITUDE": "46.00076793",
    "LONGITUDE": "-112.5395754",
    "GROUP": "Impacted Organization",
    "TOTAL ORGS IMPACTED": null,
    "Source": "221",
    "Target": "316",
    "Service Type": "VISTA"
  },
  {
    "ID": "317",
    "LABEL": "Northwest Energy",
    "LATITUDE": null,
    "LONGITUDE": null,
    "GROUP": "Impacted Organization",
    "TOTAL ORGS IMPACTED": null,
    "Source": "221",
    "Target": "317",
    "Service Type": "VISTA"
  },
  {
    "ID": "318",
    "LABEL": "Southwest Community Health Center",
    "LATITUDE": "45.99863154",
    "LONGITUDE": "-112.5418575",
    "GROUP": "Impacted Organization",
    "TOTAL ORGS IMPACTED": null,
    "Source": "221",
    "Target": "318",
    "Service Type": "VISTA"
  },
  {
    "ID": "319",
    "LABEL": "Headfram Spirits",
    "LATITUDE": "46.01200687",
    "LONGITUDE": "-112.5396123",
    "GROUP": "Impacted Organization",
    "TOTAL ORGS IMPACTED": null,
    "Source": "221",
    "Target": "319",
    "Service Type": "VISTA"
  },
  {
    "ID": "320",
    "LABEL": "Pioneer Technical Services",
    "LATITUDE": "45.99923107",
    "LONGITUDE": "-112.5394404",
    "GROUP": "Impacted Organization",
    "TOTAL ORGS IMPACTED": null,
    "Source": "221",
    "Target": "320",
    "Service Type": "VISTA"
  },
  {
    "ID": "321",
    "LABEL": "BSB Department of Environment and Reclamation Services",
    "LATITUDE": "46.01480154",
    "LONGITUDE": "-112.5388441",
    "GROUP": "Impacted Organization",
    "TOTAL ORGS IMPACTED": null,
    "Source": "221",
    "Target": "321",
    "Service Type": "VISTA"
  },
  {
    "ID": "322",
    "LABEL": "BSB Health Department",
    "LATITUDE": "45.99921422",
    "LONGITUDE": "-112.5355653",
    "GROUP": "Impacted Organization",
    "TOTAL ORGS IMPACTED": null,
    "Source": "221",
    "Target": "322",
    "Service Type": "VISTA"
  },
  {
    "ID": "323",
    "LABEL": "BSB Planning Office",
    "LATITUDE": "46.01536888",
    "LONGITUDE": "-112.5387345",
    "GROUP": "Impacted Organization",
    "TOTAL ORGS IMPACTED": null,
    "Source": "221",
    "Target": "323",
    "Service Type": "VISTA"
  },
  {
    "ID": "324",
    "LABEL": "BSB Economic Development Office",
    "LATITUDE": "46.01478769",
    "LONGITUDE": "-112.5388096",
    "GROUP": "Impacted Organization",
    "TOTAL ORGS IMPACTED": null,
    "Source": "221",
    "Target": "324",
    "Service Type": "VISTA"
  },
  {
    "ID": "325",
    "LABEL": "BSB Board of Commissioners",
    "LATITUDE": "46.01478769",
    "LONGITUDE": "-112.5388096",
    "GROUP": "Impacted Organization",
    "TOTAL ORGS IMPACTED": null,
    "Source": "221",
    "Target": "325",
    "Service Type": "VISTA"
  },
  {
    "ID": "326",
    "LABEL": "MT Department of Natural Resources and Conservation",
    "LATITUDE": "46.8591642",
    "LONGITUDE": "-114.045553",
    "GROUP": "Impacted Organization",
    "TOTAL ORGS IMPACTED": null,
    "Source": "221",
    "Target": "326",
    "Service Type": "VISTA"
  },
  {
    "ID": "327",
    "LABEL": "Partner with Place",
    "LATITUDE": "46.86204459",
    "LONGITUDE": "-113.9846398",
    "GROUP": "Impacted Organization",
    "TOTAL ORGS IMPACTED": null,
    "Source": "222",
    "Target": "327",
    "Service Type": "VISTA"
  },
  {
    "ID": "328",
    "LABEL": "Missoula Downtown Association",
    "LATITUDE": "46.87064016",
    "LONGITUDE": "-113.992019",
    "GROUP": "Impacted Organization",
    "TOTAL ORGS IMPACTED": null,
    "Source": "222",
    "Target": "328",
    "Service Type": "VISTA"
  },
  {
    "ID": "329",
    "LABEL": "Snqweylmistn",
    "LATITUDE": "47.51844074",
    "LONGITUDE": "-114.0976027",
    "GROUP": "Impacted Organization",
    "TOTAL ORGS IMPACTED": null,
    "Source": "223",
    "Target": "329",
    "Service Type": "VISTA"
  },
  {
    "ID": "330",
    "LABEL": "State of Montana Arboretum",
    "LATITUDE": "46.86076565",
    "LONGITUDE": "-113.9838833",
    "GROUP": "Impacted Organization",
    "TOTAL ORGS IMPACTED": null,
    "Source": "224",
    "Target": "330",
    "Service Type": "VISTA"
  },
  {
    "ID": "331",
    "LABEL": "University of Montana Food Pantry",
    "LATITUDE": "46.86088003",
    "LONGITUDE": "-113.9827811",
    "GROUP": "Impacted Organization",
    "TOTAL ORGS IMPACTED": null,
    "Source": "225",
    "Target": "331",
    "Service Type": "VISTA"
  },
  {
    "ID": "332",
    "LABEL": "ASUM Bear Necessities",
    "LATITUDE": "46.86073121",
    "LONGITUDE": "-113.9833067",
    "GROUP": "Impacted Organization",
    "TOTAL ORGS IMPACTED": null,
    "Source": "225",
    "Target": "332",
    "Service Type": "VISTA"
  },
  {
    "ID": "333",
    "LABEL": "VAC (Vetereans Advocate Clinic)",
    "LATITUDE": "46.86564068",
    "LONGITUDE": "-113.9770737",
    "GROUP": "Impacted Organization",
    "TOTAL ORGS IMPACTED": null,
    "Source": "226",
    "Target": "333",
    "Service Type": "VISTA"
  }
]
